[
    {
      "id": null,
      "State": "Chhattisgarh",
      "City": "Bhilai",
      "Station": "32Bungalows, Bhilai - CECB",
      "Pol_Date": "2024-09-23 21:00:00",
      "AQI": 53,
      "AQI_Quality": "Satisfactory",
      "Longitude": 81.3148,
      "Latitude": 21.1948
    },
    {
      "id": null,
      "State": "Chhattisgarh",
      "City": "Bhilai",
      "Station": "32Bungalows, Bhilai - CECB",
      "Pol_Date": "2024-09-23 21:00:00",
      "AQI": 53,
      "AQI_Quality": "Satisfactory",
      "Longitude": 81.3148,
      "Latitude": 21.1948
    },
    {
      "id": null,
      "State": "Rajasthan",
      "City": "Jaipur",
      "Station": "Adarsh Nagar, Jaipur - RSPCB",
      "Pol_Date": "2024-09-23 21:00:00",
      "AQI": 76,
      "AQI_Quality": "Satisfactory",
      "Longitude": 75.8369,
      "Latitude": 26.9029
    },
    {
      "id": null,
      "State": "Rajasthan",
      "City": "Jaipur",
      "Station": "Adarsh Nagar, Jaipur - RSPCB",
      "Pol_Date": "2024-09-23 21:00:00",
      "AQI": 76,
      "AQI_Quality": "Satisfactory",
      "Longitude": 75.8369,
      "Latitude": 26.9029
    },
    {
      "id": null,
      "State": "Chhattisgarh",
      "City": "Raipur",
      "Station": "AIIMS, Raipur - CECB",
      "Pol_Date": "2024-09-23 21:00:00",
      "AQI": 52,
      "AQI_Quality": "Satisfactory",
      "Longitude": 81.579,
      "Latitude": 21.2588
    },
    {
      "id": null,
      "State": "Chhattisgarh",
      "City": "Raipur",
      "Station": "AIIMS, Raipur - CECB",
      "Pol_Date": "2024-09-23 21:00:00",
      "AQI": 52,
      "AQI_Quality": "Satisfactory",
      "Longitude": 81.579,
      "Latitude": 21.2588
    },
    {
      "id": null,
      "State": "Madhya Pradesh",
      "City": "Indore",
      "Station": "Airport Area, Indore - IMC",
      "Pol_Date": "2024-09-23 14:00:00",
      "AQI": 41,
      "AQI_Quality": "Good",
      "Longitude": 75.8076,
      "Latitude": 22.7289
    },
    {
      "id": null,
      "State": "Madhya Pradesh",
      "City": "Indore",
      "Station": "Airport Area, Indore - IMC",
      "Pol_Date": "2024-09-23 14:00:00",
      "AQI": 41,
      "AQI_Quality": "Good",
      "Longitude": 75.8076,
      "Latitude": 22.7289
    },
    {
      "id": null,
      "State": "Maharashtra",
      "City": "Pune",
      "Station": "Alandi, Pune - IITM",
      "Pol_Date": "2024-09-22 23:00:00",
      "AQI": 54,
      "AQI_Quality": "Satisfactory",
      "Longitude": 73.8927,
      "Latitude": 18.6751
    },
    {
      "id": null,
      "State": "TamilNadu",
      "City": "Chennai",
      "Station": "Alandur Bus Depot, Chennai - CPCB",
      "Pol_Date": "2024-09-23 21:00:00",
      "AQI": 30,
      "AQI_Quality": "Good",
      "Longitude": 80.1077,
      "Latitude": 12.9099
    },
    {
      "id": null,
      "State": "TamilNadu",
      "City": "Chennai",
      "Station": "Alandur Bus Depot, Chennai - CPCB",
      "Pol_Date": "2024-09-23 21:00:00",
      "AQI": 30,
      "AQI_Quality": "Good",
      "Longitude": 80.1077,
      "Latitude": 12.9099
    },
    {
      "id": null,
      "State": "Delhi",
      "City": "Delhi",
      "Station": "Alipur, Delhi - DPCC",
      "Pol_Date": "2024-09-23 21:00:00",
      "AQI": 133,
      "AQI_Quality": "Moderate",
      "Longitude": 77.153,
      "Latitude": 28.8153
    },
    {
      "id": null,
      "State": "Delhi",
      "City": "Delhi",
      "Station": "Alipur, Delhi - DPCC",
      "Pol_Date": "2024-09-23 21:00:00",
      "AQI": 133,
      "AQI_Quality": "Moderate",
      "Longitude": 77.153,
      "Latitude": 28.8153
    },
    {
      "id": null,
      "State": "Maharashtra",
      "City": "Nagpur",
      "Station": "Ambazari, Nagpur - MPCB",
      "Pol_Date": "2024-09-23 21:00:00",
      "AQI": 103,
      "AQI_Quality": "Moderate",
      "Longitude": 79.0495,
      "Latitude": 21.1218
    },
    {
      "id": null,
      "State": "Maharashtra",
      "City": "Nagpur",
      "Station": "Ambazari, Nagpur - MPCB",
      "Pol_Date": "2024-09-23 21:00:00",
      "AQI": 103,
      "AQI_Quality": "Moderate",
      "Longitude": 79.0495,
      "Latitude": 21.1218
    },
    {
      "id": null,
      "State": "Andhra_Pradesh",
      "City": "Rajamahendravaram",
      "Station": "Anand Kala Kshetram, Rajamahendravaram - APPCB",
      "Pol_Date": "2024-09-23 20:00:00",
      "AQI": 54,
      "AQI_Quality": "Satisfactory",
      "Longitude": 81.7363,
      "Latitude": 16.9873
    },
    {
      "id": null,
      "State": "Andhra_Pradesh",
      "City": "Rajamahendravaram",
      "Station": "Anand Kala Kshetram, Rajamahendravaram - APPCB",
      "Pol_Date": "2024-09-23 20:00:00",
      "AQI": 54,
      "AQI_Quality": "Satisfactory",
      "Longitude": 81.7363,
      "Latitude": 16.9873
    },
    {
      "id": null,
      "State": "Delhi",
      "City": "Delhi",
      "Station": "Anand Vihar, Delhi - DPCC",
      "Pol_Date": "2024-09-22 23:00:00",
      "AQI": 460,
      "AQI_Quality": "Severe",
      "Longitude": 77.3158,
      "Latitude": 28.6476
    },
    {
      "id": null,
      "State": "Uttar_Pradesh",
      "City": "Hapur",
      "Station": "Anand Vihar, Hapur - UPPCB",
      "Pol_Date": "2024-09-23 21:00:00",
      "AQI": 150,
      "AQI_Quality": "Moderate",
      "Longitude": 77.7497,
      "Latitude": 28.7256
    },
    {
      "id": null,
      "State": "Uttar_Pradesh",
      "City": "Hapur",
      "Station": "Anand Vihar, Hapur - UPPCB",
      "Pol_Date": "2024-09-23 21:00:00",
      "AQI": 150,
      "AQI_Quality": "Moderate",
      "Longitude": 77.7497,
      "Latitude": 28.7256
    },
    {
      "id": null,
      "State": "TamilNadu",
      "City": "Gummidipoondi",
      "Station": "Anthoni Pillai Nagar, Gummidipoondi - TNPCB",
      "Pol_Date": "2024-09-23 21:00:00",
      "AQI": 82,
      "AQI_Quality": "Satisfactory",
      "Longitude": 80.1081,
      "Latitude": 13.4127
    },
    {
      "id": null,
      "State": "TamilNadu",
      "City": "Gummidipoondi",
      "Station": "Anthoni Pillai Nagar, Gummidipoondi - TNPCB",
      "Pol_Date": "2024-09-23 21:00:00",
      "AQI": 82,
      "AQI_Quality": "Satisfactory",
      "Longitude": 80.1081,
      "Latitude": 13.4127
    },
    {
      "id": null,
      "State": "Uttar_Pradesh",
      "City": "Varanasi",
      "Station": "Ardhali Bazar, Varanasi - UPPCB",
      "Pol_Date": "2024-09-23 20:00:00",
      "AQI": 108,
      "AQI_Quality": "Moderate",
      "Longitude": 82.9083,
      "Latitude": 25.3506
    },
    {
      "id": null,
      "State": "Uttar_Pradesh",
      "City": "Varanasi",
      "Station": "Ardhali Bazar, Varanasi - UPPCB",
      "Pol_Date": "2024-09-23 20:00:00",
      "AQI": 108,
      "AQI_Quality": "Moderate",
      "Longitude": 82.9083,
      "Latitude": 25.3506
    },
    {
      "id": null,
      "State": "TamilNadu",
      "City": "Chennai",
      "Station": "Arumbakkam, Chennai - TNPCB",
      "Pol_Date": "2024-09-23 21:00:00",
      "AQI": 56,
      "AQI_Quality": "Satisfactory",
      "Longitude": 80.2112,
      "Latitude": 13.0664
    },
    {
      "id": null,
      "State": "TamilNadu",
      "City": "Chennai",
      "Station": "Arumbakkam, Chennai - TNPCB",
      "Pol_Date": "2024-09-23 21:00:00",
      "AQI": 56,
      "AQI_Quality": "Satisfactory",
      "Longitude": 80.2112,
      "Latitude": 13.0664
    },
    {
      "id": null,
      "State": "Haryana",
      "City": "Bahadurgarh",
      "Station": "Arya Nagar, Bahadurgarh - HSPCB",
      "Pol_Date": "2024-09-23 21:00:00",
      "AQI": 105,
      "AQI_Quality": "Moderate",
      "Longitude": 76.9254,
      "Latitude": 28.6701
    },
    {
      "id": null,
      "State": "Haryana",
      "City": "Bahadurgarh",
      "Station": "Arya Nagar, Bahadurgarh - HSPCB",
      "Pol_Date": "2024-09-23 21:00:00",
      "AQI": 105,
      "AQI_Quality": "Moderate",
      "Longitude": 76.9254,
      "Latitude": 28.6701
    },
    {
      "id": null,
      "State": "West_Bengal",
      "City": "Asansol",
      "Station": "Asansol Court Area, Asansol - WBPCB",
      "Pol_Date": "2024-09-23 21:00:00",
      "AQI": 89,
      "AQI_Quality": "Satisfactory",
      "Longitude": 86.946,
      "Latitude": 23.6853
    },
    {
      "id": null,
      "State": "West_Bengal",
      "City": "Asansol",
      "Station": "Asansol Court Area, Asansol - WBPCB",
      "Pol_Date": "2024-09-23 21:00:00",
      "AQI": 89,
      "AQI_Quality": "Satisfactory",
      "Longitude": 86.946,
      "Latitude": 23.6853
    },
    {
      "id": null,
      "State": "Rajasthan",
      "City": "Udaipur",
      "Station": "Ashok Nagar, Udaipur - RSPCB",
      "Pol_Date": "2024-09-23 21:00:00",
      "AQI": 86,
      "AQI_Quality": "Satisfactory",
      "Longitude": 73.6321,
      "Latitude": 24.5886
    },
    {
      "id": null,
      "State": "Rajasthan",
      "City": "Udaipur",
      "Station": "Ashok Nagar, Udaipur - RSPCB",
      "Pol_Date": "2024-09-23 21:00:00",
      "AQI": 86,
      "AQI_Quality": "Satisfactory",
      "Longitude": 73.6321,
      "Latitude": 24.5886
    },
    {
      "id": null,
      "State": "Delhi",
      "City": "Delhi",
      "Station": "Ashok Vihar, Delhi - DPCC",
      "Pol_Date": "2024-09-23 20:00:00",
      "AQI": 160,
      "AQI_Quality": "Moderate",
      "Longitude": 77.1817,
      "Latitude": 28.6954
    },
    {
      "id": null,
      "State": "Delhi",
      "City": "Delhi",
      "Station": "Ashok Vihar, Delhi - DPCC",
      "Pol_Date": "2024-09-23 20:00:00",
      "AQI": 160,
      "AQI_Quality": "Moderate",
      "Longitude": 77.1817,
      "Latitude": 28.6954
    },
    {
      "id": null,
      "State": "Karnataka",
      "City": "Haveri",
      "Station": "Ashwini Nagar, Haveri - KSPCB",
      "Pol_Date": "2024-09-23 10:00:00",
      "AQI": 42,
      "AQI_Quality": "Good",
      "Longitude": 75.3896,
      "Latitude": 14.7918
    },
    {
      "id": null,
      "State": "Uttar_Pradesh",
      "City": "Lucknow",
      "Station": "B R Ambedkar University, Lucknow - UPPCB",
      "Pol_Date": "2024-09-23 21:00:00",
      "AQI": 86,
      "AQI_Quality": "Satisfactory",
      "Longitude": 80.9273,
      "Latitude": 26.7664
    },
    {
      "id": null,
      "State": "Uttar_Pradesh",
      "City": "Lucknow",
      "Station": "B R Ambedkar University, Lucknow - UPPCB",
      "Pol_Date": "2024-09-23 21:00:00",
      "AQI": 86,
      "AQI_Quality": "Satisfactory",
      "Longitude": 80.9273,
      "Latitude": 26.7664
    },
    {
      "id": null,
      "State": "Karnataka",
      "City": "Hassan",
      "Station": "B.Katihalli, Hassan - KSPCB",
      "Pol_Date": "2024-09-23 21:00:00",
      "AQI": 45,
      "AQI_Quality": "Good",
      "Longitude": 76.1253,
      "Latitude": 13.0086
    },
    {
      "id": null,
      "State": "Karnataka",
      "City": "Hassan",
      "Station": "B.Katihalli, Hassan - KSPCB",
      "Pol_Date": "2024-09-23 21:00:00",
      "AQI": 45,
      "AQI_Quality": "Good",
      "Longitude": 76.1253,
      "Latitude": 13.0086
    },
    {
      "id": null,
      "State": "West_Bengal",
      "City": "Kolkata",
      "Station": "Ballygunge, Kolkata - WBPCB",
      "Pol_Date": "2024-09-23 20:00:00",
      "AQI": 94,
      "AQI_Quality": "Satisfactory",
      "Longitude": 88.3638,
      "Latitude": 22.5368
    },
    {
      "id": null,
      "State": "West_Bengal",
      "City": "Kolkata",
      "Station": "Ballygunge, Kolkata - WBPCB",
      "Pol_Date": "2024-09-23 20:00:00",
      "AQI": 94,
      "AQI_Quality": "Satisfactory",
      "Longitude": 88.3638,
      "Latitude": 22.5368
    },
    {
      "id": null,
      "State": "Rajasthan",
      "City": "Baran",
      "Station": "Bamboliya, Baran - RSPCB",
      "Pol_Date": "2024-09-23 21:00:00",
      "AQI": 47,
      "AQI_Quality": "Good",
      "Longitude": 76.4699,
      "Latitude": 25.106
    },
    {
      "id": null,
      "State": "Rajasthan",
      "City": "Baran",
      "Station": "Bamboliya, Baran - RSPCB",
      "Pol_Date": "2024-09-23 21:00:00",
      "AQI": 47,
      "AQI_Quality": "Good",
      "Longitude": 76.4699,
      "Latitude": 25.106
    },
    {
      "id": null,
      "State": "Madhya Pradesh",
      "City": "Satna",
      "Station": "Bandhavgar Colony, Satna - Birla Cement",
      "Pol_Date": "2024-09-23 21:00:00",
      "AQI": 24,
      "AQI_Quality": "Good",
      "Longitude": 80.8549,
      "Latitude": 24.5843
    },
    {
      "id": null,
      "State": "Madhya Pradesh",
      "City": "Satna",
      "Station": "Bandhavgar Colony, Satna - Birla Cement",
      "Pol_Date": "2024-09-23 21:00:00",
      "AQI": 24,
      "AQI_Quality": "Good",
      "Longitude": 80.8549,
      "Latitude": 24.5843
    },
    {
      "id": null,
      "State": "Maharashtra",
      "City": "Mumbai",
      "Station": "Bandra Kurla Complex, Mumbai - MPCB",
      "Pol_Date": "2024-09-23 21:00:00",
      "AQI": 77,
      "AQI_Quality": "Satisfactory",
      "Longitude": 72.8621,
      "Latitude": 19.0659
    },
    {
      "id": null,
      "State": "Maharashtra",
      "City": "Mumbai",
      "Station": "Bandra Kurla Complex, Mumbai - MPCB",
      "Pol_Date": "2024-09-23 21:00:00",
      "AQI": 77,
      "AQI_Quality": "Satisfactory",
      "Longitude": 72.8621,
      "Latitude": 19.0659
    },
    {
      "id": null,
      "State": "Karnataka",
      "City": "Bengaluru",
      "Station": "Bapuji Nagar, Bengaluru - KSPCB",
      "Pol_Date": "2024-09-23 21:00:00",
      "AQI": 45,
      "AQI_Quality": "Good",
      "Longitude": 77.5398,
      "Latitude": 12.9519
    },
    {
      "id": null,
      "State": "Karnataka",
      "City": "Bengaluru",
      "Station": "Bapuji Nagar, Bengaluru - KSPCB",
      "Pol_Date": "2024-09-23 21:00:00",
      "AQI": 45,
      "AQI_Quality": "Good",
      "Longitude": 77.5398,
      "Latitude": 12.9519
    },
    {
      "id": null,
      "State": "Odisha",
      "City": "Tensa",
      "Station": "Barsua Iron Ore Mines, Tensa - OSPCB",
      "Pol_Date": "2024-09-23 21:00:00",
      "AQI": 106,
      "AQI_Quality": "Moderate",
      "Longitude": 85.167,
      "Latitude": 21.87
    },
    {
      "id": null,
      "State": "Odisha",
      "City": "Tensa",
      "Station": "Barsua Iron Ore Mines, Tensa - OSPCB",
      "Pol_Date": "2024-09-23 21:00:00",
      "AQI": 106,
      "AQI_Quality": "Moderate",
      "Longitude": 85.167,
      "Latitude": 21.87
    },
    {
      "id": null,
      "State": "Assam",
      "City": "Nalbari",
      "Station": "Bata Chowk, Nalbari - PCBA",
      "Pol_Date": "2024-09-23 21:00:00",
      "AQI": 66,
      "AQI_Quality": "Satisfactory",
      "Longitude": 91.4391,
      "Latitude": 26.4469
    },
    {
      "id": null,
      "State": "Assam",
      "City": "Nalbari",
      "Station": "Bata Chowk, Nalbari - PCBA",
      "Pol_Date": "2024-09-23 21:00:00",
      "AQI": 66,
      "AQI_Quality": "Satisfactory",
      "Longitude": 91.4391,
      "Latitude": 26.4469
    },
    {
      "id": null,
      "State": "Delhi",
      "City": "Delhi",
      "Station": "Bawana, Delhi - DPCC",
      "Pol_Date": "2024-09-23 21:00:00",
      "AQI": 191,
      "AQI_Quality": "Moderate",
      "Longitude": 77.0511,
      "Latitude": 28.7762
    },
    {
      "id": null,
      "State": "Delhi",
      "City": "Delhi",
      "Station": "Bawana, Delhi - DPCC",
      "Pol_Date": "2024-09-23 21:00:00",
      "AQI": 191,
      "AQI_Quality": "Moderate",
      "Longitude": 77.0511,
      "Latitude": 28.7762
    },
    {
      "id": null,
      "State": "West_Bengal",
      "City": "Howrah",
      "Station": "Belur Math, Howrah - WBPCB",
      "Pol_Date": "2024-09-23 21:00:00",
      "AQI": 87,
      "AQI_Quality": "Satisfactory",
      "Longitude": 88.352,
      "Latitude": 22.6298
    },
    {
      "id": null,
      "State": "West_Bengal",
      "City": "Howrah",
      "Station": "Belur Math, Howrah - WBPCB",
      "Pol_Date": "2024-09-23 21:00:00",
      "AQI": 87,
      "AQI_Quality": "Satisfactory",
      "Longitude": 88.352,
      "Latitude": 22.6298
    },
    {
      "id": null,
      "State": "TamilNadu",
      "City": "Palkalaiperur",
      "Station": "Bharathidasan University, Palkalaiperur - TNPCB",
      "Pol_Date": "2024-09-23 21:00:00",
      "AQI": 19,
      "AQI_Quality": "Good",
      "Longitude": 78.7417,
      "Latitude": 10.6812
    },
    {
      "id": null,
      "State": "TamilNadu",
      "City": "Palkalaiperur",
      "Station": "Bharathidasan University, Palkalaiperur - TNPCB",
      "Pol_Date": "2024-09-23 21:00:00",
      "AQI": 19,
      "AQI_Quality": "Good",
      "Longitude": 78.7417,
      "Latitude": 10.6812
    },
    {
      "id": null,
      "State": "Chhattisgarh",
      "City": "Raipur",
      "Station": "Bhatagaon New ISBT, Raipur - CECB",
      "Pol_Date": "2024-09-23 20:00:00",
      "AQI": 44,
      "AQI_Quality": "Good",
      "Longitude": 81.6301,
      "Latitude": 21.2197
    },
    {
      "id": null,
      "State": "Chhattisgarh",
      "City": "Raipur",
      "Station": "Bhatagaon New ISBT, Raipur - CECB",
      "Pol_Date": "2024-09-23 20:00:00",
      "AQI": 44,
      "AQI_Quality": "Good",
      "Longitude": 81.6301,
      "Latitude": 21.2197
    },
    {
      "id": null,
      "State": "Maharashtra",
      "City": "Mira-Bhayandar",
      "Station": "Bhayandar West, Mira-Bhayandar - MPCB",
      "Pol_Date": "2024-09-23 21:00:00",
      "AQI": 39,
      "AQI_Quality": "Good",
      "Longitude": 72.8409,
      "Latitude": 19.2965
    },
    {
      "id": null,
      "State": "Maharashtra",
      "City": "Mira-Bhayandar",
      "Station": "Bhayandar West, Mira-Bhayandar - MPCB",
      "Pol_Date": "2024-09-23 21:00:00",
      "AQI": 39,
      "AQI_Quality": "Good",
      "Longitude": 72.8409,
      "Latitude": 19.2965
    },
    {
      "id": null,
      "State": "Uttar_Pradesh",
      "City": "Varanasi",
      "Station": "Bhelupur, Varanasi - UPPCB",
      "Pol_Date": "2024-09-22 23:00:00",
      "AQI": 88,
      "AQI_Quality": "Satisfactory",
      "Longitude": 82.9968,
      "Latitude": 25.3018
    },
    {
      "id": null,
      "State": "Rajasthan",
      "City": "Dungarpur",
      "Station": "Bhoiwada, Dungarpur - RSPCB",
      "Pol_Date": "2024-09-23 20:00:00",
      "AQI": 73,
      "AQI_Quality": "Satisfactory",
      "Longitude": 73.7149,
      "Latitude": 23.8378
    },
    {
      "id": null,
      "State": "Rajasthan",
      "City": "Dungarpur",
      "Station": "Bhoiwada, Dungarpur - RSPCB",
      "Pol_Date": "2024-09-23 20:00:00",
      "AQI": 73,
      "AQI_Quality": "Satisfactory",
      "Longitude": 73.7149,
      "Latitude": 23.8378
    },
    {
      "id": null,
      "State": "Madhya Pradesh",
      "City": "Dewas",
      "Station": "Bhopal Chauraha, Dewas - MPPCB",
      "Pol_Date": "2024-09-23 21:00:00",
      "AQI": 75,
      "AQI_Quality": "Satisfactory",
      "Longitude": 76.0641,
      "Latitude": 22.9683
    },
    {
      "id": null,
      "State": "Madhya Pradesh",
      "City": "Dewas",
      "Station": "Bhopal Chauraha, Dewas - MPPCB",
      "Pol_Date": "2024-09-23 21:00:00",
      "AQI": 75,
      "AQI_Quality": "Satisfactory",
      "Longitude": 76.0641,
      "Latitude": 22.9683
    },
    {
      "id": null,
      "State": "Maharashtra",
      "City": "Pune",
      "Station": "Bhumkar Nagar, Pune - IITM",
      "Pol_Date": "2024-09-23 14:00:00",
      "AQI": 58,
      "AQI_Quality": "Satisfactory",
      "Longitude": 73.75,
      "Latitude": 18.6058
    },
    {
      "id": null,
      "State": "Maharashtra",
      "City": "Pune",
      "Station": "Bhumkar Nagar, Pune - IITM",
      "Pol_Date": "2024-09-23 14:00:00",
      "AQI": 58,
      "AQI_Quality": "Satisfactory",
      "Longitude": 73.75,
      "Latitude": 18.6058
    },
    {
      "id": null,
      "State": "West_Bengal",
      "City": "Kolkata",
      "Station": "Bidhannagar, Kolkata - WBPCB",
      "Pol_Date": "2024-09-23 20:00:00",
      "AQI": 107,
      "AQI_Quality": "Moderate",
      "Longitude": 88.41,
      "Latitude": 22.5816
    },
    {
      "id": null,
      "State": "West_Bengal",
      "City": "Kolkata",
      "Station": "Bidhannagar, Kolkata - WBPCB",
      "Pol_Date": "2024-09-23 20:00:00",
      "AQI": 107,
      "AQI_Quality": "Moderate",
      "Longitude": 88.41,
      "Latitude": 22.5816
    },
    {
      "id": null,
      "State": "Maharashtra",
      "City": "Virar",
      "Station": "Bolinj, Virar - MPCB",
      "Pol_Date": "2024-09-23 21:00:00",
      "AQI": 53,
      "AQI_Quality": "Satisfactory",
      "Longitude": 72.7988,
      "Latitude": 19.4458
    },
    {
      "id": null,
      "State": "Maharashtra",
      "City": "Virar",
      "Station": "Bolinj, Virar - MPCB",
      "Pol_Date": "2024-09-23 21:00:00",
      "AQI": 53,
      "AQI_Quality": "Satisfactory",
      "Longitude": 72.7988,
      "Latitude": 19.4458
    },
    {
      "id": null,
      "State": "Telangana",
      "City": "Hyderabad",
      "Station": "Bollaram Industrial Area, Hyderabad - TSPCB",
      "Pol_Date": "2024-09-23 21:00:00",
      "AQI": 71,
      "AQI_Quality": "Satisfactory",
      "Longitude": 78.3585,
      "Latitude": 17.5409
    },
    {
      "id": null,
      "State": "Telangana",
      "City": "Hyderabad",
      "Station": "Bollaram Industrial Area, Hyderabad - TSPCB",
      "Pol_Date": "2024-09-23 21:00:00",
      "AQI": 71,
      "AQI_Quality": "Satisfactory",
      "Longitude": 78.3585,
      "Latitude": 17.5409
    },
    {
      "id": null,
      "State": "TamilNadu",
      "City": "Ooty",
      "Station": "Bombay Castel, Ooty - TNPCB",
      "Pol_Date": "2024-09-23 14:00:00",
      "AQI": 63,
      "AQI_Quality": "Satisfactory",
      "Longitude": 76.7139,
      "Latitude": 11.4068
    },
    {
      "id": null,
      "State": "TamilNadu",
      "City": "Ooty",
      "Station": "Bombay Castel, Ooty - TNPCB",
      "Pol_Date": "2024-09-23 14:00:00",
      "AQI": 63,
      "AQI_Quality": "Satisfactory",
      "Longitude": 76.7139,
      "Latitude": 11.4068
    },
    {
      "id": null,
      "State": "Maharashtra",
      "City": "Mumbai",
      "Station": "Borivali East, Mumbai - MPCB",
      "Pol_Date": "2024-09-23 21:00:00",
      "AQI": 39,
      "AQI_Quality": "Good",
      "Longitude": 72.8658,
      "Latitude": 19.2243
    },
    {
      "id": null,
      "State": "Maharashtra",
      "City": "Mumbai",
      "Station": "Borivali East, Mumbai - MPCB",
      "Pol_Date": "2024-09-23 21:00:00",
      "AQI": 39,
      "AQI_Quality": "Good",
      "Longitude": 72.8658,
      "Latitude": 19.2243
    },
    {
      "id": null,
      "State": "West_Bengal",
      "City": "Howrah",
      "Station": "Botanical Garden, Howrah - WBPCB",
      "Pol_Date": "2024-09-23 20:00:00",
      "AQI": 107,
      "AQI_Quality": "Moderate",
      "Longitude": 88.2926,
      "Latitude": 22.555
    },
    {
      "id": null,
      "State": "West_Bengal",
      "City": "Howrah",
      "Station": "Botanical Garden, Howrah - WBPCB",
      "Pol_Date": "2024-09-23 20:00:00",
      "AQI": 107,
      "AQI_Quality": "Moderate",
      "Longitude": 88.2926,
      "Latitude": 22.555
    },
    {
      "id": null,
      "State": "Karnataka",
      "City": "Udupi",
      "Station": "Brahmagiri, Udupi - KSPCB",
      "Pol_Date": "2024-09-23 21:00:00",
      "AQI": 27,
      "AQI_Quality": "Good",
      "Longitude": 74.7469,
      "Latitude": 13.3419
    },
    {
      "id": null,
      "State": "Karnataka",
      "City": "Udupi",
      "Station": "Brahmagiri, Udupi - KSPCB",
      "Pol_Date": "2024-09-23 21:00:00",
      "AQI": 27,
      "AQI_Quality": "Good",
      "Longitude": 74.7469,
      "Latitude": 13.3419
    },
    {
      "id": null,
      "State": "Karnataka",
      "City": "Bengaluru",
      "Station": "BTM Layout, Bengaluru - CPCB",
      "Pol_Date": "2024-09-23 21:00:00",
      "AQI": 36,
      "AQI_Quality": "Good",
      "Longitude": 77.5951,
      "Latitude": 12.9135
    },
    {
      "id": null,
      "State": "Karnataka",
      "City": "Bengaluru",
      "Station": "BTM Layout, Bengaluru - CPCB",
      "Pol_Date": "2024-09-23 21:00:00",
      "AQI": 36,
      "AQI_Quality": "Good",
      "Longitude": 77.5951,
      "Latitude": 12.9135
    },
    {
      "id": null,
      "State": "Bihar",
      "City": "Muzaffarpur",
      "Station": "Buddha Colony, Muzaffarpur - BSPCB",
      "Pol_Date": "2024-09-23 20:00:00",
      "AQI": 90,
      "AQI_Quality": "Satisfactory",
      "Longitude": 85.3981,
      "Latitude": 26.1144
    },
    {
      "id": null,
      "State": "Bihar",
      "City": "Muzaffarpur",
      "Station": "Buddha Colony, Muzaffarpur - BSPCB",
      "Pol_Date": "2024-09-23 20:00:00",
      "AQI": 90,
      "AQI_Quality": "Satisfactory",
      "Longitude": 85.3981,
      "Latitude": 26.1144
    },
    {
      "id": null,
      "State": "Uttar_Pradesh",
      "City": "Moradabad",
      "Station": "Buddhi Vihar, Moradabad - UPPCB",
      "Pol_Date": "2024-09-23 21:00:00",
      "AQI": 80,
      "AQI_Quality": "Satisfactory",
      "Longitude": 78.7446,
      "Latitude": 28.8353
    },
    {
      "id": null,
      "State": "Uttar_Pradesh",
      "City": "Moradabad",
      "Station": "Buddhi Vihar, Moradabad - UPPCB",
      "Pol_Date": "2024-09-23 21:00:00",
      "AQI": 80,
      "AQI_Quality": "Satisfactory",
      "Longitude": 78.7446,
      "Latitude": 28.8353
    },
    {
      "id": null,
      "State": "Delhi",
      "City": "Delhi",
      "Station": "Burari Crossing, Delhi - IMD",
      "Pol_Date": "2024-09-23 21:00:00",
      "AQI": 201,
      "AQI_Quality": "Poor",
      "Longitude": 77.2012,
      "Latitude": 28.7257
    },
    {
      "id": null,
      "State": "Delhi",
      "City": "Delhi",
      "Station": "Burari Crossing, Delhi - IMD",
      "Pol_Date": "2024-09-23 21:00:00",
      "AQI": 201,
      "AQI_Quality": "Poor",
      "Longitude": 77.2012,
      "Latitude": 28.7257
    },
    {
      "id": null,
      "State": "Maharashtra",
      "City": "Mumbai",
      "Station": "Byculla, Mumbai - BMC",
      "Pol_Date": "2024-09-23 21:00:00",
      "AQI": 32,
      "AQI_Quality": "Good",
      "Longitude": 72.838,
      "Latitude": 18.9767
    },
    {
      "id": null,
      "State": "Maharashtra",
      "City": "Mumbai",
      "Station": "Byculla, Mumbai - BMC",
      "Pol_Date": "2024-09-23 21:00:00",
      "AQI": 32,
      "AQI_Quality": "Good",
      "Longitude": 72.838,
      "Latitude": 18.9767
    },
    {
      "id": null,
      "State": "Maharashtra",
      "City": "Belapur",
      "Station": "CBD Belapur, Belapur - MPCB",
      "Pol_Date": "2024-09-23 21:00:00",
      "AQI": 71,
      "AQI_Quality": "Satisfactory",
      "Longitude": 73.0407,
      "Latitude": 19.0244
    },
    {
      "id": null,
      "State": "Maharashtra",
      "City": "Belapur",
      "Station": "CBD Belapur, Belapur - MPCB",
      "Pol_Date": "2024-09-23 21:00:00",
      "AQI": 71,
      "AQI_Quality": "Satisfactory",
      "Longitude": 73.0407,
      "Latitude": 19.0244
    },
    {
      "id": null,
      "State": "Odisha",
      "City": "Cuttack",
      "Station": "CDA Area, Cuttack - OSPCB",
      "Pol_Date": "2024-09-23 21:00:00",
      "AQI": 79,
      "AQI_Quality": "Satisfactory",
      "Longitude": 85.8477,
      "Latitude": 20.4889
    },
    {
      "id": null,
      "State": "Odisha",
      "City": "Cuttack",
      "Station": "CDA Area, Cuttack - OSPCB",
      "Pol_Date": "2024-09-23 21:00:00",
      "AQI": 79,
      "AQI_Quality": "Satisfactory",
      "Longitude": 85.8477,
      "Latitude": 20.4889
    },
    {
      "id": null,
      "State": "Telangana",
      "City": "Hyderabad",
      "Station": "Central University, Hyderabad - TSPCB",
      "Pol_Date": "2024-09-23 21:00:00",
      "AQI": 56,
      "AQI_Quality": "Satisfactory",
      "Longitude": 78.3344,
      "Latitude": 17.4601
    },
    {
      "id": null,
      "State": "Telangana",
      "City": "Hyderabad",
      "Station": "Central University, Hyderabad - TSPCB",
      "Pol_Date": "2024-09-23 21:00:00",
      "AQI": 56,
      "AQI_Quality": "Satisfactory",
      "Longitude": 78.3344,
      "Latitude": 17.4601
    },
    {
      "id": null,
      "State": "TamilNadu",
      "City": "Ramanathapuram",
      "Station": "Chalai Bazaar, Ramanathapuram - TNPCB",
      "Pol_Date": "2024-09-23 21:00:00",
      "AQI": 26,
      "AQI_Quality": "Good",
      "Longitude": 78.832,
      "Latitude": 9.36399
    },
    {
      "id": null,
      "State": "TamilNadu",
      "City": "Ramanathapuram",
      "Station": "Chalai Bazaar, Ramanathapuram - TNPCB",
      "Pol_Date": "2024-09-23 21:00:00",
      "AQI": 26,
      "AQI_Quality": "Good",
      "Longitude": 78.832,
      "Latitude": 9.36399
    },
    {
      "id": null,
      "State": "Gujarat",
      "City": "Ahmedabad",
      "Station": "Chandkheda, Ahmedabad - IITM",
      "Pol_Date": "2024-09-23 21:00:00",
      "AQI": 77,
      "AQI_Quality": "Satisfactory",
      "Longitude": 72.5746,
      "Latitude": 23.108
    },
    {
      "id": null,
      "State": "Gujarat",
      "City": "Ahmedabad",
      "Station": "Chandkheda, Ahmedabad - IITM",
      "Pol_Date": "2024-09-23 21:00:00",
      "AQI": 77,
      "AQI_Quality": "Satisfactory",
      "Longitude": 72.5746,
      "Latitude": 23.108
    },
    {
      "id": null,
      "State": "Delhi",
      "City": "Delhi",
      "Station": "Chandni Chowk, Delhi - IITM",
      "Pol_Date": "2024-09-23 10:00:00",
      "AQI": 168,
      "AQI_Quality": "Moderate",
      "Longitude": 77.2272,
      "Latitude": 28.6568
    },
    {
      "id": null,
      "State": "Bihar",
      "City": "Buxar",
      "Station": "Charitra Van, Buxar - BSPCB (Formerly known as Central Jail)",
      "Pol_Date": "2024-09-22 23:00:00",
      "AQI": 54,
      "AQI_Quality": "Satisfactory",
      "Longitude": 83.9664,
      "Latitude": 25.5675
    },
    {
      "id": null,
      "State": "Maharashtra",
      "City": "Chandrapur",
      "Station": "Chauhan Colony, Chandrapur - MPCB",
      "Pol_Date": "2024-09-23 21:00:00",
      "AQI": 50,
      "AQI_Quality": "Good",
      "Longitude": 79.2987,
      "Latitude": 19.9629
    },
    {
      "id": null,
      "State": "Maharashtra",
      "City": "Chandrapur",
      "Station": "Chauhan Colony, Chandrapur - MPCB",
      "Pol_Date": "2024-09-23 21:00:00",
      "AQI": 50,
      "AQI_Quality": "Good",
      "Longitude": 79.2987,
      "Latitude": 19.9629
    },
    {
      "id": null,
      "State": "Maharashtra",
      "City": "Mumbai",
      "Station": "Chembur, Mumbai - MPCB",
      "Pol_Date": "2024-09-23 21:00:00",
      "AQI": 44,
      "AQI_Quality": "Good",
      "Longitude": 72.8954,
      "Latitude": 19.0365
    },
    {
      "id": null,
      "State": "Maharashtra",
      "City": "Mumbai",
      "Station": "Chembur, Mumbai - MPCB",
      "Pol_Date": "2024-09-23 21:00:00",
      "AQI": 44,
      "AQI_Quality": "Good",
      "Longitude": 72.8954,
      "Latitude": 19.0365
    },
    {
      "id": null,
      "State": "Maharashtra",
      "City": "Mumbai",
      "Station": "Chhatrapati Shivaji Intl. Airport (T2), Mumbai - MPCB",
      "Pol_Date": "2024-09-22 23:00:00",
      "AQI": 84,
      "AQI_Quality": "Satisfactory",
      "Longitude": 72.8746,
      "Latitude": 19.1008
    },
    {
      "id": null,
      "State": "Madhya Pradesh",
      "City": "Indore",
      "Station": "Chhoti Gwaltoli, Indore - MPPCB",
      "Pol_Date": "2024-09-23 21:00:00",
      "AQI": 71,
      "AQI_Quality": "Satisfactory",
      "Longitude": 75.5213,
      "Latitude": 22.431
    },
    {
      "id": null,
      "State": "Madhya Pradesh",
      "City": "Indore",
      "Station": "Chhoti Gwaltoli, Indore - MPPCB",
      "Pol_Date": "2024-09-23 21:00:00",
      "AQI": 71,
      "AQI_Quality": "Satisfactory",
      "Longitude": 75.5213,
      "Latitude": 22.431
    },
    {
      "id": null,
      "State": "Karnataka",
      "City": "Chikkaballapur",
      "Station": "Chikkaballapur Rural, Chikkaballapur - KSPCB",
      "Pol_Date": "2024-09-23 21:00:00",
      "AQI": 33,
      "AQI_Quality": "Good",
      "Longitude": 77.7314,
      "Latitude": 13.4288
    },
    {
      "id": null,
      "State": "Karnataka",
      "City": "Chikkaballapur",
      "Station": "Chikkaballapur Rural, Chikkaballapur - KSPCB",
      "Pol_Date": "2024-09-23 21:00:00",
      "AQI": 33,
      "AQI_Quality": "Good",
      "Longitude": 77.7314,
      "Latitude": 13.4288
    },
    {
      "id": null,
      "State": "Bihar",
      "City": "Siwan",
      "Station": "Chitragupta Nagar, Siwan - BSPCB",
      "Pol_Date": "2024-09-23 14:00:00",
      "AQI": 140,
      "AQI_Quality": "Moderate",
      "Longitude": 84.357,
      "Latitude": 26.2272
    },
    {
      "id": null,
      "State": "Bihar",
      "City": "Siwan",
      "Station": "Chitragupta Nagar, Siwan - BSPCB",
      "Pol_Date": "2024-09-23 14:00:00",
      "AQI": 140,
      "AQI_Quality": "Moderate",
      "Longitude": 84.357,
      "Latitude": 26.2272
    },
    {
      "id": null,
      "State": "Assam",
      "City": "Nagaon",
      "Station": "Christianpatty, Nagaon - PCBA",
      "Pol_Date": "2024-09-23 21:00:00",
      "AQI": 94,
      "AQI_Quality": "Satisfactory",
      "Longitude": 92.6845,
      "Latitude": 26.3491
    },
    {
      "id": null,
      "State": "Assam",
      "City": "Nagaon",
      "Station": "Christianpatty, Nagaon - PCBA",
      "Pol_Date": "2024-09-23 21:00:00",
      "AQI": 94,
      "AQI_Quality": "Satisfactory",
      "Longitude": 92.6845,
      "Latitude": 26.3491
    },
    {
      "id": null,
      "State": "Madhya Pradesh",
      "City": "Gwalior",
      "Station": "City Center, Gwalior - MPPCB",
      "Pol_Date": "2024-09-23 21:00:00",
      "AQI": 64,
      "AQI_Quality": "Satisfactory",
      "Longitude": 78.1933,
      "Latitude": 26.2034
    },
    {
      "id": null,
      "State": "Madhya Pradesh",
      "City": "Gwalior",
      "Station": "City Center, Gwalior - MPPCB",
      "Pol_Date": "2024-09-23 21:00:00",
      "AQI": 64,
      "AQI_Quality": "Satisfactory",
      "Longitude": 78.1933,
      "Latitude": 26.2034
    },
    {
      "id": null,
      "State": "Chhattisgarh",
      "City": "Bhilai",
      "Station": "Civic Center, Bhilai - Bhilai Steel Plant",
      "Pol_Date": "2024-09-23 21:00:00",
      "AQI": 50,
      "AQI_Quality": "Good",
      "Longitude": 81.3432,
      "Latitude": 21.1856
    },
    {
      "id": null,
      "State": "Chhattisgarh",
      "City": "Bhilai",
      "Station": "Civic Center, Bhilai - Bhilai Steel Plant",
      "Pol_Date": "2024-09-23 21:00:00",
      "AQI": 50,
      "AQI_Quality": "Good",
      "Longitude": 81.3432,
      "Latitude": 21.1856
    },
    {
      "id": null,
      "State": "Punjab",
      "City": "Jalandhar",
      "Station": "Civil Line, Jalandhar - PPCB",
      "Pol_Date": "2024-09-23 21:00:00",
      "AQI": 84,
      "AQI_Quality": "Satisfactory",
      "Longitude": 75.5789,
      "Latitude": 31.3219
    },
    {
      "id": null,
      "State": "Punjab",
      "City": "Jalandhar",
      "Station": "Civil Line, Jalandhar - PPCB",
      "Pol_Date": "2024-09-23 21:00:00",
      "AQI": 84,
      "AQI_Quality": "Satisfactory",
      "Longitude": 75.5789,
      "Latitude": 31.3219
    },
    {
      "id": null,
      "State": "Rajasthan",
      "City": "Ajmer",
      "Station": "Civil Lines,  Ajmer - RSPCB",
      "Pol_Date": "2024-09-23 21:00:00",
      "AQI": 67,
      "AQI_Quality": "Satisfactory",
      "Longitude": 74.6466,
      "Latitude": 26.4709
    },
    {
      "id": null,
      "State": "Rajasthan",
      "City": "Ajmer",
      "Station": "Civil Lines,  Ajmer - RSPCB",
      "Pol_Date": "2024-09-23 21:00:00",
      "AQI": 67,
      "AQI_Quality": "Satisfactory",
      "Longitude": 74.6466,
      "Latitude": 26.4709
    },
    {
      "id": null,
      "State": "Uttar_Pradesh",
      "City": "Bareilly",
      "Station": "Civil Lines, Bareilly - UPPCB",
      "Pol_Date": "2024-09-22 23:00:00",
      "AQI": 34,
      "AQI_Quality": "Good",
      "Longitude": 79.4145,
      "Latitude": 28.3596
    },
    {
      "id": null,
      "State": "Madhya Pradesh",
      "City": "Sagar",
      "Station": "Civil Lines, Sagar - MPPCB",
      "Pol_Date": "2024-09-22 23:00:00",
      "AQI": 70,
      "AQI_Quality": "Satisfactory",
      "Longitude": 78.7594,
      "Latitude": 23.8386
    },
    {
      "id": null,
      "State": "Karnataka",
      "City": "Yadgir",
      "Station": "Collector Office, Yadgir - KSPCB",
      "Pol_Date": "2024-09-23 21:00:00",
      "AQI": 47,
      "AQI_Quality": "Good",
      "Longitude": 77.1428,
      "Latitude": 16.7602
    },
    {
      "id": null,
      "State": "Karnataka",
      "City": "Yadgir",
      "Station": "Collector Office, Yadgir - KSPCB",
      "Pol_Date": "2024-09-23 21:00:00",
      "AQI": 47,
      "AQI_Quality": "Good",
      "Longitude": 77.1428,
      "Latitude": 16.7602
    },
    {
      "id": null,
      "State": "TamilNadu",
      "City": "Virudhunagar",
      "Station": "Collectorate Office, Virudhunagar - TNPCB",
      "Pol_Date": "2024-09-23 20:00:00",
      "AQI": 20,
      "AQI_Quality": "Good",
      "Longitude": 77.9488,
      "Latitude": 9.55938
    },
    {
      "id": null,
      "State": "TamilNadu",
      "City": "Virudhunagar",
      "Station": "Collectorate Office, Virudhunagar - TNPCB",
      "Pol_Date": "2024-09-23 20:00:00",
      "AQI": 20,
      "AQI_Quality": "Good",
      "Longitude": 77.9488,
      "Latitude": 9.55938
    },
    {
      "id": null,
      "State": "Bihar",
      "City": "Gaya",
      "Station": "Collectorate, Gaya - BSPCB",
      "Pol_Date": "2024-09-23 10:00:00",
      "AQI": 80,
      "AQI_Quality": "Satisfactory",
      "Longitude": 84.9994,
      "Latitude": 24.7955
    },
    {
      "id": null,
      "State": "Rajasthan",
      "City": "Jodhpur",
      "Station": "Collectorate, Jodhpur - RSPCB",
      "Pol_Date": "2024-09-23 14:00:00",
      "AQI": 87,
      "AQI_Quality": "Satisfactory",
      "Longitude": 73.0194,
      "Latitude": 26.2682
    },
    {
      "id": null,
      "State": "Rajasthan",
      "City": "Jodhpur",
      "Station": "Collectorate, Jodhpur - RSPCB",
      "Pol_Date": "2024-09-23 14:00:00",
      "AQI": 87,
      "AQI_Quality": "Satisfactory",
      "Longitude": 73.0194,
      "Latitude": 26.2682
    },
    {
      "id": null,
      "State": "Kerala",
      "City": "Thrissur",
      "Station": "Corporation Ground, Thrissur - Kerala PCB",
      "Pol_Date": "2024-09-23 14:00:00",
      "AQI": 48,
      "AQI_Quality": "Good",
      "Longitude": 76.2159,
      "Latitude": 10.5324
    },
    {
      "id": null,
      "State": "Kerala",
      "City": "Thrissur",
      "Station": "Corporation Ground, Thrissur - Kerala PCB",
      "Pol_Date": "2024-09-23 14:00:00",
      "AQI": 48,
      "AQI_Quality": "Good",
      "Longitude": 76.2159,
      "Latitude": 10.5324
    },
    {
      "id": null,
      "State": "TamilNadu",
      "City": "Chengalpattu",
      "Station": "Crescent University, Chengalpattu - TNPCB",
      "Pol_Date": "2024-09-23 21:00:00",
      "AQI": 44,
      "AQI_Quality": "Good",
      "Longitude": 80.0835,
      "Latitude": 12.8777
    },
    {
      "id": null,
      "State": "TamilNadu",
      "City": "Chengalpattu",
      "Station": "Crescent University, Chengalpattu - TNPCB",
      "Pol_Date": "2024-09-23 21:00:00",
      "AQI": 44,
      "AQI_Quality": "Good",
      "Longitude": 80.0835,
      "Latitude": 12.8777
    },
    {
      "id": null,
      "State": "Bihar",
      "City": "Bihar Sharif",
      "Station": "D M Colony, Bihar Sharif - BSPCB",
      "Pol_Date": "2024-09-23 14:00:00",
      "AQI": 29,
      "AQI_Quality": "Good",
      "Longitude": 85.515,
      "Latitude": 25.2048
    },
    {
      "id": null,
      "State": "Bihar",
      "City": "Bihar Sharif",
      "Station": "D M Colony, Bihar Sharif - BSPCB",
      "Pol_Date": "2024-09-23 14:00:00",
      "AQI": 29,
      "AQI_Quality": "Good",
      "Longitude": 85.515,
      "Latitude": 25.2048
    },
    {
      "id": null,
      "State": "Odisha",
      "City": "Nayagarh",
      "Station": "Dabuna, Nayagarh - OSPCB",
      "Pol_Date": "2024-09-23 21:00:00",
      "AQI": 62,
      "AQI_Quality": "Satisfactory",
      "Longitude": 85.4169,
      "Latitude": 21.8473
    },
    {
      "id": null,
      "State": "Odisha",
      "City": "Nayagarh",
      "Station": "Dabuna, Nayagarh - OSPCB",
      "Pol_Date": "2024-09-23 21:00:00",
      "AQI": 62,
      "AQI_Quality": "Satisfactory",
      "Longitude": 85.4169,
      "Latitude": 21.8473
    },
    {
      "id": null,
      "State": "Bihar",
      "City": "Rajgir",
      "Station": "Dangi Tola, Rajgir - BSPCB",
      "Pol_Date": "2024-09-22 23:00:00",
      "AQI": 100,
      "AQI_Quality": "Satisfactory",
      "Longitude": 85.4195,
      "Latitude": 25.0328
    },
    {
      "id": null,
      "State": "Bihar",
      "City": "Chhapra",
      "Station": "Darshan Nagar, Chhapra - BSPCB",
      "Pol_Date": "2024-09-23 21:00:00",
      "AQI": 97,
      "AQI_Quality": "Satisfactory",
      "Longitude": 84.7447,
      "Latitude": 25.7808
    },
    {
      "id": null,
      "State": "Bihar",
      "City": "Chhapra",
      "Station": "Darshan Nagar, Chhapra - BSPCB",
      "Pol_Date": "2024-09-23 21:00:00",
      "AQI": 97,
      "AQI_Quality": "Satisfactory",
      "Longitude": 84.7447,
      "Latitude": 25.7808
    },
    {
      "id": null,
      "State": "Madhya Pradesh",
      "City": "Gwalior",
      "Station": "Deen Dayal Nagar, Gwalior - MPPCB",
      "Pol_Date": "2024-09-23 21:00:00",
      "AQI": 116,
      "AQI_Quality": "Moderate",
      "Longitude": 78.2164,
      "Latitude": 26.2592
    },
    {
      "id": null,
      "State": "Madhya Pradesh",
      "City": "Gwalior",
      "Station": "Deen Dayal Nagar, Gwalior - MPPCB",
      "Pol_Date": "2024-09-23 21:00:00",
      "AQI": 116,
      "AQI_Quality": "Moderate",
      "Longitude": 78.2164,
      "Latitude": 26.2592
    },
    {
      "id": null,
      "State": "Madhya Pradesh",
      "City": "Sagar",
      "Station": "Deen Dayal Nagar, Sagar - MPPCB",
      "Pol_Date": "2024-09-23 21:00:00",
      "AQI": 40,
      "AQI_Quality": "Good",
      "Longitude": 78.8029,
      "Latitude": 23.864
    },
    {
      "id": null,
      "State": "Madhya Pradesh",
      "City": "Sagar",
      "Station": "Deen Dayal Nagar, Sagar - MPPCB",
      "Pol_Date": "2024-09-23 21:00:00",
      "AQI": 40,
      "AQI_Quality": "Good",
      "Longitude": 78.8029,
      "Latitude": 23.864
    },
    {
      "id": null,
      "State": "Maharashtra",
      "City": "Dhule",
      "Station": "Deopur, Dhule - MPCB",
      "Pol_Date": "2024-09-23 21:00:00",
      "AQI": 70,
      "AQI_Quality": "Satisfactory",
      "Longitude": 74.7764,
      "Latitude": 20.9189
    },
    {
      "id": null,
      "State": "Maharashtra",
      "City": "Dhule",
      "Station": "Deopur, Dhule - MPCB",
      "Pol_Date": "2024-09-23 21:00:00",
      "AQI": 70,
      "AQI_Quality": "Satisfactory",
      "Longitude": 74.7764,
      "Latitude": 20.9189
    },
    {
      "id": null,
      "State": "Karnataka",
      "City": "Davanagere",
      "Station": "Devaraj Urs Badavane, Davanagere - KSPCB",
      "Pol_Date": "2024-09-23 21:00:00",
      "AQI": 34,
      "AQI_Quality": "Good",
      "Longitude": 75.9052,
      "Latitude": 14.4758
    },
    {
      "id": null,
      "State": "Karnataka",
      "City": "Davanagere",
      "Station": "Devaraj Urs Badavane, Davanagere - KSPCB",
      "Pol_Date": "2024-09-23 21:00:00",
      "AQI": 34,
      "AQI_Quality": "Good",
      "Longitude": 75.9052,
      "Latitude": 14.4758
    },
    {
      "id": null,
      "State": "Rajasthan",
      "City": "Kota",
      "Station": "Dhanmandi, Kota - RSPCB",
      "Pol_Date": "2024-09-23 21:00:00",
      "AQI": 77,
      "AQI_Quality": "Satisfactory",
      "Longitude": 75.8581,
      "Latitude": 25.1641
    },
    {
      "id": null,
      "State": "Rajasthan",
      "City": "Kota",
      "Station": "Dhanmandi, Kota - RSPCB",
      "Pol_Date": "2024-09-23 21:00:00",
      "AQI": 77,
      "AQI_Quality": "Satisfactory",
      "Longitude": 75.8581,
      "Latitude": 25.1641
    },
    {
      "id": null,
      "State": "Rajasthan",
      "City": "Rajsamand",
      "Station": "Dhoinda, Rajsamand - RSPCB",
      "Pol_Date": "2024-09-23 21:00:00",
      "AQI": 78,
      "AQI_Quality": "Satisfactory",
      "Longitude": 73.8835,
      "Latitude": 25.0364
    },
    {
      "id": null,
      "State": "Rajasthan",
      "City": "Rajsamand",
      "Station": "Dhoinda, Rajsamand - RSPCB",
      "Pol_Date": "2024-09-23 21:00:00",
      "AQI": 78,
      "AQI_Quality": "Satisfactory",
      "Longitude": 73.8835,
      "Latitude": 25.0364
    },
    {
      "id": null,
      "State": "Rajasthan",
      "City": "Jodhpur",
      "Station": "Digari Kalan, Jodhpur - RSPCB",
      "Pol_Date": "2024-09-23 21:00:00",
      "AQI": 92,
      "AQI_Quality": "Satisfactory",
      "Longitude": 73.0823,
      "Latitude": 26.2958
    },
    {
      "id": null,
      "State": "Rajasthan",
      "City": "Jodhpur",
      "Station": "Digari Kalan, Jodhpur - RSPCB",
      "Pol_Date": "2024-09-23 21:00:00",
      "AQI": 92,
      "AQI_Quality": "Satisfactory",
      "Longitude": 73.0823,
      "Latitude": 26.2958
    },
    {
      "id": null,
      "State": "Odisha",
      "City": "Rairangpur",
      "Station": "Divisional Forest Office, Rairangpur - OSPCB",
      "Pol_Date": "2024-09-23 10:00:00",
      "AQI": 70,
      "AQI_Quality": "Satisfactory",
      "Longitude": 86.1748,
      "Latitude": 22.2658
    },
    {
      "id": null,
      "State": "Karnataka",
      "City": "Koppal",
      "Station": "Diwator Nagar, Koppal - KSPCB",
      "Pol_Date": "2024-09-23 21:00:00",
      "AQI": 41,
      "AQI_Quality": "Good",
      "Longitude": 76.1818,
      "Latitude": 15.3476
    },
    {
      "id": null,
      "State": "Karnataka",
      "City": "Koppal",
      "Station": "Diwator Nagar, Koppal - KSPCB",
      "Pol_Date": "2024-09-23 21:00:00",
      "AQI": 41,
      "AQI_Quality": "Good",
      "Longitude": 76.1818,
      "Latitude": 15.3476
    },
    {
      "id": null,
      "State": "Bihar",
      "City": "Bhagalpur",
      "Station": "DM Office_Kachari Chowk, Bhagalpur - BSPCB",
      "Pol_Date": "2024-09-23 11:00:00",
      "AQI": 47,
      "AQI_Quality": "Good",
      "Longitude": 86.989,
      "Latitude": 25.251
    },
    {
      "id": null,
      "State": "Bihar",
      "City": "Samastipur",
      "Station": "DM Office_Kasipur, Samastipur - BSPCB",
      "Pol_Date": "2024-09-22 23:00:00",
      "AQI": 16,
      "AQI_Quality": "Good",
      "Longitude": 85.7794,
      "Latitude": 25.8597
    },
    {
      "id": null,
      "State": "Uttarakhand",
      "City": "Dehradun",
      "Station": "Doon University, Dehradun - UKPCB",
      "Pol_Date": "2024-09-23 21:00:00",
      "AQI": 59,
      "AQI_Quality": "Satisfactory",
      "Longitude": 78.0442,
      "Latitude": 30.2694
    },
    {
      "id": null,
      "State": "Uttarakhand",
      "City": "Dehradun",
      "Station": "Doon University, Dehradun - UKPCB",
      "Pol_Date": "2024-09-23 21:00:00",
      "AQI": 59,
      "AQI_Quality": "Satisfactory",
      "Longitude": 78.0442,
      "Latitude": 30.2694
    },
    {
      "id": null,
      "State": "Delhi",
      "City": "Delhi",
      "Station": "Dr. Karni Singh Shooting Range, Delhi - DPCC",
      "Pol_Date": "2024-09-23 21:00:00",
      "AQI": 184,
      "AQI_Quality": "Moderate",
      "Longitude": 77.2648,
      "Latitude": 28.4986
    },
    {
      "id": null,
      "State": "Delhi",
      "City": "Delhi",
      "Station": "Dr. Karni Singh Shooting Range, Delhi - DPCC",
      "Pol_Date": "2024-09-23 21:00:00",
      "AQI": 184,
      "AQI_Quality": "Moderate",
      "Longitude": 77.2648,
      "Latitude": 28.4986
    },
    {
      "id": null,
      "State": "Bihar",
      "City": "Patna",
      "Station": "DRM Office Danapur, Patna - BSPCB",
      "Pol_Date": "2024-09-23 21:00:00",
      "AQI": 97,
      "AQI_Quality": "Satisfactory",
      "Longitude": 85.0436,
      "Latitude": 25.5866
    },
    {
      "id": null,
      "State": "Bihar",
      "City": "Patna",
      "Station": "DRM Office Danapur, Patna - BSPCB",
      "Pol_Date": "2024-09-23 21:00:00",
      "AQI": 97,
      "AQI_Quality": "Satisfactory",
      "Longitude": 85.0436,
      "Latitude": 25.5866
    },
    {
      "id": null,
      "State": "Delhi",
      "City": "Delhi",
      "Station": "DTU, Delhi - CPCB",
      "Pol_Date": "2024-09-23 20:00:00",
      "AQI": 124,
      "AQI_Quality": "Moderate",
      "Longitude": 77.1113,
      "Latitude": 28.75
    },
    {
      "id": null,
      "State": "Delhi",
      "City": "Delhi",
      "Station": "DTU, Delhi - CPCB",
      "Pol_Date": "2024-09-23 20:00:00",
      "AQI": 124,
      "AQI_Quality": "Moderate",
      "Longitude": 77.1113,
      "Latitude": 28.75
    },
    {
      "id": null,
      "State": "Delhi",
      "City": "Delhi",
      "Station": "Dwarka-Sector 8, Delhi - DPCC ",
      "Pol_Date": "2024-09-23 20:00:00",
      "AQI": 183,
      "AQI_Quality": "Moderate",
      "Longitude": 77.0719,
      "Latitude": 28.571
    },
    {
      "id": null,
      "State": "Delhi",
      "City": "Delhi",
      "Station": "Dwarka-Sector 8, Delhi - DPCC ",
      "Pol_Date": "2024-09-23 20:00:00",
      "AQI": 183,
      "AQI_Quality": "Moderate",
      "Longitude": 77.0719,
      "Latitude": 28.571
    },
    {
      "id": null,
      "State": "Telangana",
      "City": "Hyderabad",
      "Station": "ECIL Kapra, Hyderabad - TSPCB",
      "Pol_Date": "2024-09-23 21:00:00",
      "AQI": 61,
      "AQI_Quality": "Satisfactory",
      "Longitude": 78.567,
      "Latitude": 17.4704
    },
    {
      "id": null,
      "State": "Telangana",
      "City": "Hyderabad",
      "Station": "ECIL Kapra, Hyderabad - TSPCB",
      "Pol_Date": "2024-09-23 21:00:00",
      "AQI": 61,
      "AQI_Quality": "Satisfactory",
      "Longitude": 78.567,
      "Latitude": 17.4704
    },
    {
      "id": null,
      "State": "Uttar_Pradesh",
      "City": "Moradabad",
      "Station": "Eco Herbal Park, Moradabad - UPPCB",
      "Pol_Date": "2024-09-23 21:00:00",
      "AQI": 188,
      "AQI_Quality": "Moderate",
      "Longitude": 78.6975,
      "Latitude": 28.8407
    },
    {
      "id": null,
      "State": "Uttar_Pradesh",
      "City": "Moradabad",
      "Station": "Eco Herbal Park, Moradabad - UPPCB",
      "Pol_Date": "2024-09-23 21:00:00",
      "AQI": 188,
      "AQI_Quality": "Moderate",
      "Longitude": 78.6975,
      "Latitude": 28.8407
    },
    {
      "id": null,
      "State": "Uttar_Pradesh",
      "City": "Moradabad",
      "Station": "Employment Office, Moradabad - UPPCB",
      "Pol_Date": "2024-09-23 21:00:00",
      "AQI": 62,
      "AQI_Quality": "Satisfactory",
      "Longitude": 78.7388,
      "Latitude": 28.8853
    },
    {
      "id": null,
      "State": "Uttar_Pradesh",
      "City": "Moradabad",
      "Station": "Employment Office, Moradabad - UPPCB",
      "Pol_Date": "2024-09-23 21:00:00",
      "AQI": 62,
      "AQI_Quality": "Satisfactory",
      "Longitude": 78.7388,
      "Latitude": 28.8853
    },
    {
      "id": null,
      "State": "Haryana",
      "City": "Sirsa",
      "Station": "F-Block, Sirsa - HSPCB",
      "Pol_Date": "2024-09-23 21:00:00",
      "AQI": 115,
      "AQI_Quality": "Moderate",
      "Longitude": 75.0158,
      "Latitude": 29.5364
    },
    {
      "id": null,
      "State": "Haryana",
      "City": "Sirsa",
      "Station": "F-Block, Sirsa - HSPCB",
      "Pol_Date": "2024-09-23 21:00:00",
      "AQI": 115,
      "AQI_Quality": "Moderate",
      "Longitude": 75.0158,
      "Latitude": 29.5364
    },
    {
      "id": null,
      "State": "Odisha",
      "City": "Byasanagar",
      "Station": "Ferro Chrome Colony, Byasanagar - OSPCB",
      "Pol_Date": "2024-09-23 21:00:00",
      "AQI": 68,
      "AQI_Quality": "Satisfactory",
      "Longitude": 86.1151,
      "Latitude": 20.9419
    },
    {
      "id": null,
      "State": "Odisha",
      "City": "Byasanagar",
      "Station": "Ferro Chrome Colony, Byasanagar - OSPCB",
      "Pol_Date": "2024-09-23 21:00:00",
      "AQI": 68,
      "AQI_Quality": "Satisfactory",
      "Longitude": 86.1151,
      "Latitude": 20.9419
    },
    {
      "id": null,
      "State": "Odisha",
      "City": "Rourkela",
      "Station": "Fertilizer Township, Rourkela - OSPCB",
      "Pol_Date": "2024-09-23 21:00:00",
      "AQI": 109,
      "AQI_Quality": "Moderate",
      "Longitude": 84.8628,
      "Latitude": 22.1897
    },
    {
      "id": null,
      "State": "Odisha",
      "City": "Rourkela",
      "Station": "Fertilizer Township, Rourkela - OSPCB",
      "Pol_Date": "2024-09-23 21:00:00",
      "AQI": 109,
      "AQI_Quality": "Moderate",
      "Longitude": 84.8628,
      "Latitude": 22.1897
    },
    {
      "id": null,
      "State": "Odisha",
      "City": "Barbil",
      "Station": "Forest Office, Barbil - OSPCB",
      "Pol_Date": "2024-09-23 21:00:00",
      "AQI": 102,
      "AQI_Quality": "Moderate",
      "Longitude": 85.3946,
      "Latitude": 22.1166
    },
    {
      "id": null,
      "State": "Odisha",
      "City": "Barbil",
      "Station": "Forest Office, Barbil - OSPCB",
      "Pol_Date": "2024-09-23 21:00:00",
      "AQI": 102,
      "AQI_Quality": "Moderate",
      "Longitude": 85.3946,
      "Latitude": 22.1166
    },
    {
      "id": null,
      "State": "Bihar",
      "City": "Manguraha",
      "Station": "Forest Rest House, Manguraha - BSPCB",
      "Pol_Date": "2024-09-23 20:00:00",
      "AQI": 76,
      "AQI_Quality": "Satisfactory",
      "Longitude": 84.5317,
      "Latitude": 27.3083
    },
    {
      "id": null,
      "State": "Bihar",
      "City": "Manguraha",
      "Station": "Forest Rest House, Manguraha - BSPCB",
      "Pol_Date": "2024-09-23 20:00:00",
      "AQI": 76,
      "AQI_Quality": "Satisfactory",
      "Longitude": 84.5317,
      "Latitude": 27.3083
    },
    {
      "id": null,
      "State": "West_Bengal",
      "City": "Kolkata",
      "Station": "Fort William, Kolkata - WBPCB",
      "Pol_Date": "2024-09-23 21:00:00",
      "AQI": 66,
      "AQI_Quality": "Satisfactory",
      "Longitude": 88.3427,
      "Latitude": 22.5566
    },
    {
      "id": null,
      "State": "West_Bengal",
      "City": "Kolkata",
      "Station": "Fort William, Kolkata - WBPCB",
      "Pol_Date": "2024-09-23 21:00:00",
      "AQI": 66,
      "AQI_Quality": "Satisfactory",
      "Longitude": 88.3427,
      "Latitude": 22.5566
    },
    {
      "id": null,
      "State": "Uttar_Pradesh",
      "City": "Kanpur",
      "Station": "FTI Kidwai Nagar, Kanpur - UPPCB",
      "Pol_Date": "2024-09-23 21:00:00",
      "AQI": 74,
      "AQI_Quality": "Satisfactory",
      "Longitude": 80.3271,
      "Latitude": 26.4283
    },
    {
      "id": null,
      "State": "Uttar_Pradesh",
      "City": "Kanpur",
      "Station": "FTI Kidwai Nagar, Kanpur - UPPCB",
      "Pol_Date": "2024-09-23 21:00:00",
      "AQI": 74,
      "AQI_Quality": "Satisfactory",
      "Longitude": 80.3271,
      "Latitude": 26.4283
    },
    {
      "id": null,
      "State": "Bihar",
      "City": "Motihari",
      "Station": "Gandak Colony, Motihari - BSPCB",
      "Pol_Date": "2024-09-23 20:00:00",
      "AQI": 54,
      "AQI_Quality": "Satisfactory",
      "Longitude": 84.9005,
      "Latitude": 26.6309
    },
    {
      "id": null,
      "State": "Bihar",
      "City": "Motihari",
      "Station": "Gandak Colony, Motihari - BSPCB",
      "Pol_Date": "2024-09-23 20:00:00",
      "AQI": 54,
      "AQI_Quality": "Satisfactory",
      "Longitude": 84.9005,
      "Latitude": 26.6309
    },
    {
      "id": null,
      "State": "Uttar_Pradesh",
      "City": "Meerut",
      "Station": "Ganga Nagar, Meerut - UPPCB",
      "Pol_Date": "2024-09-23 21:00:00",
      "AQI": 153,
      "AQI_Quality": "Moderate",
      "Longitude": 77.759,
      "Latitude": 28.9993
    },
    {
      "id": null,
      "State": "Uttar_Pradesh",
      "City": "Meerut",
      "Station": "Ganga Nagar, Meerut - UPPCB",
      "Pol_Date": "2024-09-23 21:00:00",
      "AQI": 153,
      "AQI_Quality": "Moderate",
      "Longitude": 77.759,
      "Latitude": 28.9993
    },
    {
      "id": null,
      "State": "Maharashtra",
      "City": "Nashik",
      "Station": "Gangapur Road, Nashik - MPCB",
      "Pol_Date": "2024-09-23 21:00:00",
      "AQI": 59,
      "AQI_Quality": "Satisfactory",
      "Longitude": 73.7762,
      "Latitude": 20.0073
    },
    {
      "id": null,
      "State": "Maharashtra",
      "City": "Nashik",
      "Station": "Gangapur Road, Nashik - MPCB",
      "Pol_Date": "2024-09-23 21:00:00",
      "AQI": 59,
      "AQI_Quality": "Satisfactory",
      "Longitude": 73.7762,
      "Latitude": 20.0073
    },
    {
      "id": null,
      "State": "Andhra_Pradesh",
      "City": "Chittoor",
      "Station": "Gangineni Cheruvu, Chittoor - APPCB",
      "Pol_Date": "2024-09-23 20:00:00",
      "AQI": 64,
      "AQI_Quality": "Satisfactory",
      "Longitude": 79.0979,
      "Latitude": 13.2049
    },
    {
      "id": null,
      "State": "Andhra_Pradesh",
      "City": "Chittoor",
      "Station": "Gangineni Cheruvu, Chittoor - APPCB",
      "Pol_Date": "2024-09-23 20:00:00",
      "AQI": 64,
      "AQI_Quality": "Satisfactory",
      "Longitude": 79.0979,
      "Latitude": 13.2049
    },
    {
      "id": null,
      "State": "Maharashtra",
      "City": "Pimpri-Chinchwad",
      "Station": "Gavalinagar, Pimpri Chinchwad - MPCB",
      "Pol_Date": "2024-09-23 20:00:00",
      "AQI": 53,
      "AQI_Quality": "Satisfactory",
      "Longitude": 73.8249,
      "Latitude": 18.6367
    },
    {
      "id": null,
      "State": "Maharashtra",
      "City": "Pimpri-Chinchwad",
      "Station": "Gavalinagar, Pimpri Chinchwad - MPCB",
      "Pol_Date": "2024-09-23 20:00:00",
      "AQI": 53,
      "AQI_Quality": "Satisfactory",
      "Longitude": 73.8249,
      "Latitude": 18.6367
    },
    {
      "id": null,
      "State": "Haryana",
      "City": "Mandikhera",
      "Station": "General Hospital, Mandikhera - HSPCB",
      "Pol_Date": "2024-09-23 21:00:00",
      "AQI": 109,
      "AQI_Quality": "Moderate",
      "Longitude": 76.9938,
      "Latitude": 27.9002
    },
    {
      "id": null,
      "State": "Haryana",
      "City": "Mandikhera",
      "Station": "General Hospital, Mandikhera - HSPCB",
      "Pol_Date": "2024-09-23 21:00:00",
      "AQI": 109,
      "AQI_Quality": "Moderate",
      "Longitude": 76.9938,
      "Latitude": 27.9002
    },
    {
      "id": null,
      "State": "Maharashtra",
      "City": "Mumbai",
      "Station": "Ghatkopar, Mumbai - BMC",
      "Pol_Date": "2024-09-23 21:00:00",
      "AQI": 20,
      "AQI_Quality": "Good",
      "Longitude": 72.921,
      "Latitude": 19.0837
    },
    {
      "id": null,
      "State": "Maharashtra",
      "City": "Mumbai",
      "Station": "Ghatkopar, Mumbai - BMC",
      "Pol_Date": "2024-09-23 21:00:00",
      "AQI": 20,
      "AQI_Quality": "Good",
      "Longitude": 72.921,
      "Latitude": 19.0837
    },
    {
      "id": null,
      "State": "West_Bengal",
      "City": "Howrah",
      "Station": "Ghusuri, Howrah - WBPCB",
      "Pol_Date": "2024-09-23 21:00:00",
      "AQI": 94,
      "AQI_Quality": "Satisfactory",
      "Longitude": 88.3474,
      "Latitude": 22.612
    },
    {
      "id": null,
      "State": "West_Bengal",
      "City": "Howrah",
      "Station": "Ghusuri, Howrah - WBPCB",
      "Pol_Date": "2024-09-23 21:00:00",
      "AQI": 94,
      "AQI_Quality": "Satisfactory",
      "Longitude": 88.3474,
      "Latitude": 22.612
    },
    {
      "id": null,
      "State": "Gujarat",
      "City": "Ankleshwar",
      "Station": "GIDC, Ankleshwar - GPCB",
      "Pol_Date": "2024-09-23 21:00:00",
      "AQI": 78,
      "AQI_Quality": "Satisfactory",
      "Longitude": 73.0106,
      "Latitude": 21.6133
    },
    {
      "id": null,
      "State": "Gujarat",
      "City": "Ankleshwar",
      "Station": "GIDC, Ankleshwar - GPCB",
      "Pol_Date": "2024-09-23 21:00:00",
      "AQI": 78,
      "AQI_Quality": "Satisfactory",
      "Longitude": 73.0106,
      "Latitude": 21.6133
    },
    {
      "id": null,
      "State": "Gujarat",
      "City": "Nandesari",
      "Station": "GIDC, Nandesari - Nandesari Ind. Association",
      "Pol_Date": "2024-09-23 21:00:00",
      "AQI": 232,
      "AQI_Quality": "Poor",
      "Longitude": 73.0979,
      "Latitude": 22.4108
    },
    {
      "id": null,
      "State": "Gujarat",
      "City": "Nandesari",
      "Station": "GIDC, Nandesari - Nandesari Ind. Association",
      "Pol_Date": "2024-09-23 21:00:00",
      "AQI": 232,
      "AQI_Quality": "Poor",
      "Longitude": 73.0979,
      "Latitude": 22.4108
    },
    {
      "id": null,
      "State": "Gujarat",
      "City": "Gandhinagar",
      "Station": "GIFT City, Gandhinagar - IITM",
      "Pol_Date": "2024-09-23 21:00:00",
      "AQI": 65,
      "AQI_Quality": "Satisfactory",
      "Longitude": 72.6778,
      "Latitude": 23.1638
    },
    {
      "id": null,
      "State": "Gujarat",
      "City": "Gandhinagar",
      "Station": "GIFT City, Gandhinagar - IITM",
      "Pol_Date": "2024-09-23 21:00:00",
      "AQI": 65,
      "AQI_Quality": "Satisfactory",
      "Longitude": 72.6778,
      "Latitude": 23.1638
    },
    {
      "id": null,
      "State": "Assam",
      "City": "Sivasagar",
      "Station": "Girls College, Sivasagar - PCBA",
      "Pol_Date": "2024-09-23 20:00:00",
      "AQI": 62,
      "AQI_Quality": "Satisfactory",
      "Longitude": 94.6366,
      "Latitude": 26.9876
    },
    {
      "id": null,
      "State": "Assam",
      "City": "Sivasagar",
      "Station": "Girls College, Sivasagar - PCBA",
      "Pol_Date": "2024-09-23 20:00:00",
      "AQI": 62,
      "AQI_Quality": "Satisfactory",
      "Longitude": 94.6366,
      "Latitude": 26.9876
    },
    {
      "id": null,
      "State": "Odisha",
      "City": "Brajrajnagar",
      "Station": "GM Office, Brajrajnagar - OSPCB",
      "Pol_Date": "2024-09-23 20:00:00",
      "AQI": 50,
      "AQI_Quality": "Good",
      "Longitude": 83.8397,
      "Latitude": 21.8005
    },
    {
      "id": null,
      "State": "Odisha",
      "City": "Brajrajnagar",
      "Station": "GM Office, Brajrajnagar - OSPCB",
      "Pol_Date": "2024-09-23 20:00:00",
      "AQI": 50,
      "AQI_Quality": "Good",
      "Longitude": 83.8397,
      "Latitude": 21.8005
    },
    {
      "id": null,
      "State": "Haryana",
      "City": "Yamuna Nagar",
      "Station": "Gobind Pura, Yamuna Nagar - HSPCB",
      "Pol_Date": "2024-09-23 21:00:00",
      "AQI": 72,
      "AQI_Quality": "Satisfactory",
      "Longitude": 77.2893,
      "Latitude": 30.1481
    },
    {
      "id": null,
      "State": "Haryana",
      "City": "Yamuna Nagar",
      "Station": "Gobind Pura, Yamuna Nagar - HSPCB",
      "Pol_Date": "2024-09-23 21:00:00",
      "AQI": 72,
      "AQI_Quality": "Satisfactory",
      "Longitude": 77.2893,
      "Latitude": 30.1481
    },
    {
      "id": null,
      "State": "Maharashtra",
      "City": "Bhiwandi",
      "Station": "Gokul Nagar, Bhiwandi - MPCB",
      "Pol_Date": "2024-09-23 21:00:00",
      "AQI": 89,
      "AQI_Quality": "Satisfactory",
      "Longitude": 73.0572,
      "Latitude": 19.3091
    },
    {
      "id": null,
      "State": "Maharashtra",
      "City": "Bhiwandi",
      "Station": "Gokul Nagar, Bhiwandi - MPCB",
      "Pol_Date": "2024-09-23 21:00:00",
      "AQI": 89,
      "AQI_Quality": "Satisfactory",
      "Longitude": 73.0572,
      "Latitude": 19.3091
    },
    {
      "id": null,
      "State": "Punjab",
      "City": "Amritsar",
      "Station": "Golden Temple, Amritsar - PPCB",
      "Pol_Date": "2024-09-23 21:00:00",
      "AQI": 92,
      "AQI_Quality": "Satisfactory",
      "Longitude": 74.8765,
      "Latitude": 31.62
    },
    {
      "id": null,
      "State": "Punjab",
      "City": "Amritsar",
      "Station": "Golden Temple, Amritsar - PPCB",
      "Pol_Date": "2024-09-23 21:00:00",
      "AQI": 92,
      "AQI_Quality": "Satisfactory",
      "Longitude": 74.8765,
      "Latitude": 31.62
    },
    {
      "id": null,
      "State": "Madhya Pradesh",
      "City": "Katni",
      "Station": "Gole Bazar, Katni - MPPCB",
      "Pol_Date": "2024-09-22 23:00:00",
      "AQI": 62,
      "AQI_Quality": "Satisfactory",
      "Longitude": 80.2328,
      "Latitude": 23.5002
    },
    {
      "id": null,
      "State": "Uttar_Pradesh",
      "City": "Lucknow",
      "Station": "Gomti Nagar, Lucknow - UPPCB",
      "Pol_Date": "2024-09-23 21:00:00",
      "AQI": 99,
      "AQI_Quality": "Satisfactory",
      "Longitude": 81.0051,
      "Latitude": 26.8681
    },
    {
      "id": null,
      "State": "Uttar_Pradesh",
      "City": "Lucknow",
      "Station": "Gomti Nagar, Lucknow - UPPCB",
      "Pol_Date": "2024-09-23 21:00:00",
      "AQI": 99,
      "AQI_Quality": "Satisfactory",
      "Longitude": 81.0051,
      "Latitude": 26.8681
    },
    {
      "id": null,
      "State": "Uttarakhand",
      "City": "Kashipur",
      "Station": "Govt. Girls Inter College, Kashipur - UKPCB",
      "Pol_Date": "2024-09-23 14:00:00",
      "AQI": 86,
      "AQI_Quality": "Satisfactory",
      "Longitude": 78.9612,
      "Latitude": 29.2124
    },
    {
      "id": null,
      "State": "Uttarakhand",
      "City": "Kashipur",
      "Station": "Govt. Girls Inter College, Kashipur - UKPCB",
      "Pol_Date": "2024-09-23 14:00:00",
      "AQI": 86,
      "AQI_Quality": "Satisfactory",
      "Longitude": 78.9612,
      "Latitude": 29.2124
    },
    {
      "id": null,
      "State": "Bihar",
      "City": "Patna",
      "Station": "Govt. High School Shikarpur, Patna - BSPCB",
      "Pol_Date": "2024-09-23 20:00:00",
      "AQI": 90,
      "AQI_Quality": "Satisfactory",
      "Longitude": 85.2272,
      "Latitude": 25.5925
    },
    {
      "id": null,
      "State": "Bihar",
      "City": "Patna",
      "Station": "Govt. High School Shikarpur, Patna - BSPCB",
      "Pol_Date": "2024-09-23 20:00:00",
      "AQI": 90,
      "AQI_Quality": "Satisfactory",
      "Longitude": 85.2272,
      "Latitude": 25.5925
    },
    {
      "id": null,
      "State": "Madhya Pradesh",
      "City": "Jabalpur",
      "Station": "Gupteshwar, Jabalpur - JMC",
      "Pol_Date": "2024-09-23 21:00:00",
      "AQI": 99,
      "AQI_Quality": "Satisfactory",
      "Longitude": 79.9161,
      "Latitude": 23.1429
    },
    {
      "id": null,
      "State": "Madhya Pradesh",
      "City": "Jabalpur",
      "Station": "Gupteshwar, Jabalpur - JMC",
      "Pol_Date": "2024-09-23 21:00:00",
      "AQI": 99,
      "AQI_Quality": "Satisfactory",
      "Longitude": 79.9161,
      "Latitude": 23.1429
    },
    {
      "id": null,
      "State": "Bihar",
      "City": "Aurangabad",
      "Station": "Gurdeo Nagar, Aurangabad - BSPCB",
      "Pol_Date": "2024-09-23 21:00:00",
      "AQI": 86,
      "AQI_Quality": "Satisfactory",
      "Longitude": 84.3662,
      "Latitude": 24.7575
    },
    {
      "id": null,
      "State": "Bihar",
      "City": "Aurangabad",
      "Station": "Gurdeo Nagar, Aurangabad - BSPCB",
      "Pol_Date": "2024-09-23 21:00:00",
      "AQI": 86,
      "AQI_Quality": "Satisfactory",
      "Longitude": 84.3662,
      "Latitude": 24.7575
    },
    {
      "id": null,
      "State": "Andhra_Pradesh",
      "City": "Visakhapatnam",
      "Station": "GVM Corporation, Visakhapatnam - APPCB",
      "Pol_Date": "2024-09-23 21:00:00",
      "AQI": 68,
      "AQI_Quality": "Satisfactory",
      "Longitude": 83.3,
      "Latitude": 17.72
    },
    {
      "id": null,
      "State": "Andhra_Pradesh",
      "City": "Visakhapatnam",
      "Station": "GVM Corporation, Visakhapatnam - APPCB",
      "Pol_Date": "2024-09-23 21:00:00",
      "AQI": 68,
      "AQI_Quality": "Satisfactory",
      "Longitude": 83.3,
      "Latitude": 17.72
    },
    {
      "id": null,
      "State": "Gujarat",
      "City": "Ahmedabad",
      "Station": "Gyaspur, Ahmedabad - IITM",
      "Pol_Date": "2024-09-23 21:00:00",
      "AQI": 66,
      "AQI_Quality": "Satisfactory",
      "Longitude": 72.553,
      "Latitude": 22.9771
    },
    {
      "id": null,
      "State": "Gujarat",
      "City": "Ahmedabad",
      "Station": "Gyaspur, Ahmedabad - IITM",
      "Pol_Date": "2024-09-23 21:00:00",
      "AQI": 66,
      "AQI_Quality": "Satisfactory",
      "Longitude": 72.553,
      "Latitude": 22.9771
    },
    {
      "id": null,
      "State": "Haryana",
      "City": "Bhiwani",
      "Station": "H.B. Colony, Bhiwani - HSPCB",
      "Pol_Date": "2024-09-23 21:00:00",
      "AQI": 114,
      "AQI_Quality": "Moderate",
      "Longitude": 76.1411,
      "Latitude": 28.8062
    },
    {
      "id": null,
      "State": "Haryana",
      "City": "Bhiwani",
      "Station": "H.B. Colony, Bhiwani - HSPCB",
      "Pol_Date": "2024-09-23 21:00:00",
      "AQI": 114,
      "AQI_Quality": "Moderate",
      "Longitude": 76.1411,
      "Latitude": 28.8062
    },
    {
      "id": null,
      "State": "Odisha",
      "City": "Angul",
      "Station": "Hakimapada, Angul - OSPCB",
      "Pol_Date": "2024-09-23 21:00:00",
      "AQI": 72,
      "AQI_Quality": "Satisfactory",
      "Longitude": 85.1041,
      "Latitude": 20.8329
    },
    {
      "id": null,
      "State": "Odisha",
      "City": "Angul",
      "Station": "Hakimapada, Angul - OSPCB",
      "Pol_Date": "2024-09-23 21:00:00",
      "AQI": 72,
      "AQI_Quality": "Satisfactory",
      "Longitude": 85.1041,
      "Latitude": 20.8329
    },
    {
      "id": null,
      "State": "Punjab",
      "City": "Bathinda",
      "Station": "Hardev Nagar, Bathinda - PPCB",
      "Pol_Date": "2024-09-23 21:00:00",
      "AQI": 71,
      "AQI_Quality": "Satisfactory",
      "Longitude": 74.9078,
      "Latitude": 30.233
    },
    {
      "id": null,
      "State": "Punjab",
      "City": "Bathinda",
      "Station": "Hardev Nagar, Bathinda - PPCB",
      "Pol_Date": "2024-09-23 21:00:00",
      "AQI": 71,
      "AQI_Quality": "Satisfactory",
      "Longitude": 74.9078,
      "Latitude": 30.233
    },
    {
      "id": null,
      "State": "Chhattisgarh",
      "City": "Bhilai",
      "Station": "Hathkhoj, Bhilai - CECB",
      "Pol_Date": "2024-09-23 20:00:00",
      "AQI": 41,
      "AQI_Quality": "Good",
      "Longitude": 81.4083,
      "Latitude": 21.2242
    },
    {
      "id": null,
      "State": "Chhattisgarh",
      "City": "Bhilai",
      "Station": "Hathkhoj, Bhilai - CECB",
      "Pol_Date": "2024-09-23 20:00:00",
      "AQI": 41,
      "AQI_Quality": "Good",
      "Longitude": 81.4083,
      "Latitude": 21.2242
    },
    {
      "id": null,
      "State": "Karnataka",
      "City": "Mysuru",
      "Station": "Hebbal 1st Stage, Mysuru - KSPCB",
      "Pol_Date": "2024-09-23 21:00:00",
      "AQI": 39,
      "AQI_Quality": "Good",
      "Longitude": 76.3738,
      "Latitude": 12.2104
    },
    {
      "id": null,
      "State": "Karnataka",
      "City": "Mysuru",
      "Station": "Hebbal 1st Stage, Mysuru - KSPCB",
      "Pol_Date": "2024-09-23 21:00:00",
      "AQI": 39,
      "AQI_Quality": "Good",
      "Longitude": 76.3738,
      "Latitude": 12.2104
    },
    {
      "id": null,
      "State": "Karnataka",
      "City": "Bengaluru",
      "Station": "Hebbal, Bengaluru - KSPCB",
      "Pol_Date": "2024-09-23 21:00:00",
      "AQI": 33,
      "AQI_Quality": "Good",
      "Longitude": 77.5859,
      "Latitude": 13.0292
    },
    {
      "id": null,
      "State": "Karnataka",
      "City": "Bengaluru",
      "Station": "Hebbal, Bengaluru - KSPCB",
      "Pol_Date": "2024-09-23 21:00:00",
      "AQI": 33,
      "AQI_Quality": "Good",
      "Longitude": 77.5859,
      "Latitude": 13.0292
    },
    {
      "id": null,
      "State": "Himachal Pradesh",
      "City": "Baddi",
      "Station": "HIMUDA Complex Phase-1, Baddi - HPPCB",
      "Pol_Date": "2024-09-23 21:00:00",
      "AQI": 138,
      "AQI_Quality": "Moderate",
      "Longitude": 76.802,
      "Latitude": 30.9439
    },
    {
      "id": null,
      "State": "Himachal Pradesh",
      "City": "Baddi",
      "Station": "HIMUDA Complex Phase-1, Baddi - HPPCB",
      "Pol_Date": "2024-09-23 21:00:00",
      "AQI": 138,
      "AQI_Quality": "Moderate",
      "Longitude": 76.802,
      "Latitude": 30.9439
    },
    {
      "id": null,
      "State": "Maharashtra",
      "City": "Nashik",
      "Station": "Hirawadi, Nashik - MPCB",
      "Pol_Date": "2024-09-23 21:00:00",
      "AQI": 82,
      "AQI_Quality": "Satisfactory",
      "Longitude": 73.8138,
      "Latitude": 20.0215
    },
    {
      "id": null,
      "State": "Maharashtra",
      "City": "Nashik",
      "Station": "Hirawadi, Nashik - MPCB",
      "Pol_Date": "2024-09-23 21:00:00",
      "AQI": 82,
      "AQI_Quality": "Satisfactory",
      "Longitude": 73.8138,
      "Latitude": 20.0215
    },
    {
      "id": null,
      "State": "Karnataka",
      "City": "Bengaluru",
      "Station": "Hombegowda Nagar, Bengaluru - KSPCB",
      "Pol_Date": "2024-09-23 21:00:00",
      "AQI": 31,
      "AQI_Quality": "Good",
      "Longitude": 77.5901,
      "Latitude": 12.9385
    },
    {
      "id": null,
      "State": "Karnataka",
      "City": "Bengaluru",
      "Station": "Hombegowda Nagar, Bengaluru - KSPCB",
      "Pol_Date": "2024-09-23 21:00:00",
      "AQI": 31,
      "AQI_Quality": "Good",
      "Longitude": 77.5901,
      "Latitude": 12.9385
    },
    {
      "id": null,
      "State": "Rajasthan",
      "City": "Hanumangarh",
      "Station": "Housing Board, Hanumangarh - RSPCB",
      "Pol_Date": "2024-09-23 21:00:00",
      "AQI": 201,
      "AQI_Quality": "Poor",
      "Longitude": 74.2836,
      "Latitude": 29.6108
    },
    {
      "id": null,
      "State": "Rajasthan",
      "City": "Hanumangarh",
      "Station": "Housing Board, Hanumangarh - RSPCB",
      "Pol_Date": "2024-09-23 21:00:00",
      "AQI": 201,
      "AQI_Quality": "Poor",
      "Longitude": 74.2836,
      "Latitude": 29.6108
    },
    {
      "id": null,
      "State": "Karnataka",
      "City": "Vijayapura",
      "Station": "Ibrahimpur, Vijayapura - KSPCB",
      "Pol_Date": "2024-09-23 21:00:00",
      "AQI": 25,
      "AQI_Quality": "Good",
      "Longitude": 75.7227,
      "Latitude": 16.8026
    },
    {
      "id": null,
      "State": "Karnataka",
      "City": "Vijayapura",
      "Station": "Ibrahimpur, Vijayapura - KSPCB",
      "Pol_Date": "2024-09-23 21:00:00",
      "AQI": 25,
      "AQI_Quality": "Good",
      "Longitude": 75.7227,
      "Latitude": 16.8026
    },
    {
      "id": null,
      "State": "Telangana",
      "City": "Hyderabad",
      "Station": "ICRISAT Patancheru, Hyderabad - TSPCB",
      "Pol_Date": "2024-09-23 21:00:00",
      "AQI": 58,
      "AQI_Quality": "Satisfactory",
      "Longitude": 78.2788,
      "Latitude": 17.5184
    },
    {
      "id": null,
      "State": "Telangana",
      "City": "Hyderabad",
      "Station": "ICRISAT Patancheru, Hyderabad - TSPCB",
      "Pol_Date": "2024-09-23 21:00:00",
      "AQI": 58,
      "AQI_Quality": "Satisfactory",
      "Longitude": 78.2788,
      "Latitude": 17.5184
    },
    {
      "id": null,
      "State": "Telangana",
      "City": "Hyderabad",
      "Station": "IDA Pashamylaram, Hyderabad - TSPCB",
      "Pol_Date": "2024-09-23 21:00:00",
      "AQI": 99,
      "AQI_Quality": "Satisfactory",
      "Longitude": 78.2189,
      "Latitude": 17.5317
    },
    {
      "id": null,
      "State": "Telangana",
      "City": "Hyderabad",
      "Station": "IDA Pashamylaram, Hyderabad - TSPCB",
      "Pol_Date": "2024-09-23 21:00:00",
      "AQI": 99,
      "AQI_Quality": "Satisfactory",
      "Longitude": 78.2189,
      "Latitude": 17.5317
    },
    {
      "id": null,
      "State": "Uttar_Pradesh",
      "City": "Varanasi",
      "Station": "IESD Banaras Hindu University, Varanasi - UPPCB",
      "Pol_Date": "2024-09-23 21:00:00",
      "AQI": 78,
      "AQI_Quality": "Satisfactory",
      "Longitude": 82.9954,
      "Latitude": 25.2623
    },
    {
      "id": null,
      "State": "Uttar_Pradesh",
      "City": "Varanasi",
      "Station": "IESD Banaras Hindu University, Varanasi - UPPCB",
      "Pol_Date": "2024-09-23 21:00:00",
      "AQI": 78,
      "AQI_Quality": "Satisfactory",
      "Longitude": 82.9954,
      "Latitude": 25.2623
    },
    {
      "id": null,
      "State": "Delhi",
      "City": "Delhi",
      "Station": "IGI Airport (T3), Delhi - IMD",
      "Pol_Date": "2024-09-23 21:00:00",
      "AQI": 170,
      "AQI_Quality": "Moderate",
      "Longitude": 77.118,
      "Latitude": 28.5628
    },
    {
      "id": null,
      "State": "Delhi",
      "City": "Delhi",
      "Station": "IGI Airport (T3), Delhi - IMD",
      "Pol_Date": "2024-09-23 21:00:00",
      "AQI": 170,
      "AQI_Quality": "Moderate",
      "Longitude": 77.118,
      "Latitude": 28.5628
    },
    {
      "id": null,
      "State": "Bihar",
      "City": "Patna",
      "Station": "IGSC Planetarium Complex, Patna - BSPCB",
      "Pol_Date": "2024-09-23 20:00:00",
      "AQI": 100,
      "AQI_Quality": "Satisfactory",
      "Longitude": 85.1326,
      "Latitude": 25.6104
    },
    {
      "id": null,
      "State": "Bihar",
      "City": "Patna",
      "Station": "IGSC Planetarium Complex, Patna - BSPCB",
      "Pol_Date": "2024-09-23 20:00:00",
      "AQI": 100,
      "AQI_Quality": "Satisfactory",
      "Longitude": 85.1326,
      "Latitude": 25.6104
    },
    {
      "id": null,
      "State": "Delhi",
      "City": "Delhi",
      "Station": "IHBAS, Dilshad Garden, Delhi - CPCB",
      "Pol_Date": "2024-09-23 21:00:00",
      "AQI": 132,
      "AQI_Quality": "Moderate",
      "Longitude": 77.3025,
      "Latitude": 28.6812
    },
    {
      "id": null,
      "State": "Delhi",
      "City": "Delhi",
      "Station": "IHBAS, Dilshad Garden, Delhi - CPCB",
      "Pol_Date": "2024-09-23 21:00:00",
      "AQI": 132,
      "AQI_Quality": "Moderate",
      "Longitude": 77.3025,
      "Latitude": 28.6812
    },
    {
      "id": null,
      "State": "Telangana",
      "City": "Hyderabad",
      "Station": "IITH Kandi, Hyderabad - TSPCB",
      "Pol_Date": "2024-09-23 21:00:00",
      "AQI": 40,
      "AQI_Quality": "Good",
      "Longitude": 78.1262,
      "Latitude": 17.5857
    },
    {
      "id": null,
      "State": "Telangana",
      "City": "Hyderabad",
      "Station": "IITH Kandi, Hyderabad - TSPCB",
      "Pol_Date": "2024-09-23 21:00:00",
      "AQI": 40,
      "AQI_Quality": "Good",
      "Longitude": 78.1262,
      "Latitude": 17.5857
    },
    {
      "id": null,
      "State": "Rajasthan",
      "City": "Pali",
      "Station": "Indira Colony Vistar, Pali - RSPCB",
      "Pol_Date": "2024-09-23 21:00:00",
      "AQI": 120,
      "AQI_Quality": "Moderate",
      "Longitude": 73.3402,
      "Latitude": 25.7711
    },
    {
      "id": null,
      "State": "Rajasthan",
      "City": "Pali",
      "Station": "Indira Colony Vistar, Pali - RSPCB",
      "Pol_Date": "2024-09-23 21:00:00",
      "AQI": 120,
      "AQI_Quality": "Moderate",
      "Longitude": 73.3402,
      "Latitude": 25.7711
    },
    {
      "id": null,
      "State": "Uttar_Pradesh",
      "City": "Ghaziabad",
      "Station": "Indirapuram, Ghaziabad - UPPCB",
      "Pol_Date": "2024-09-23 21:00:00",
      "AQI": 260,
      "AQI_Quality": "Poor",
      "Longitude": 77.3581,
      "Latitude": 28.6462
    },
    {
      "id": null,
      "State": "Uttar_Pradesh",
      "City": "Ghaziabad",
      "Station": "Indirapuram, Ghaziabad - UPPCB",
      "Pol_Date": "2024-09-23 21:00:00",
      "AQI": 260,
      "AQI_Quality": "Poor",
      "Longitude": 77.3581,
      "Latitude": 28.6462
    },
    {
      "id": null,
      "State": "Rajasthan",
      "City": "Jhunjhunu",
      "Station": "Indra Nagar, Jhunjhunu - RSPCB",
      "Pol_Date": "2024-09-23 21:00:00",
      "AQI": 105,
      "AQI_Quality": "Moderate",
      "Longitude": 75.3866,
      "Latitude": 28.109
    },
    {
      "id": null,
      "State": "Rajasthan",
      "City": "Jhunjhunu",
      "Station": "Indra Nagar, Jhunjhunu - RSPCB",
      "Pol_Date": "2024-09-23 21:00:00",
      "AQI": 105,
      "AQI_Quality": "Moderate",
      "Longitude": 75.3866,
      "Latitude": 28.109
    },
    {
      "id": null,
      "State": "Bihar",
      "City": "Hajipur",
      "Station": "Industrial Area, Hajipur - BSPCB",
      "Pol_Date": "2024-09-23 20:00:00",
      "AQI": 99,
      "AQI_Quality": "Satisfactory",
      "Longitude": 85.2459,
      "Latitude": 25.6972
    },
    {
      "id": null,
      "State": "Bihar",
      "City": "Hajipur",
      "Station": "Industrial Area, Hajipur - BSPCB",
      "Pol_Date": "2024-09-23 20:00:00",
      "AQI": 99,
      "AQI_Quality": "Satisfactory",
      "Longitude": 85.2459,
      "Latitude": 25.6972
    },
    {
      "id": null,
      "State": "Delhi",
      "City": "Delhi",
      "Station": "ITO, Delhi - CPCB",
      "Pol_Date": "2024-09-23 21:00:00",
      "AQI": 103,
      "AQI_Quality": "Moderate",
      "Longitude": 77.2411,
      "Latitude": 28.6286
    },
    {
      "id": null,
      "State": "Delhi",
      "City": "Delhi",
      "Station": "ITO, Delhi - CPCB",
      "Pol_Date": "2024-09-23 21:00:00",
      "AQI": 103,
      "AQI_Quality": "Moderate",
      "Longitude": 77.2411,
      "Latitude": 28.6286
    },
    {
      "id": null,
      "State": "West_Bengal",
      "City": "Kolkata",
      "Station": "Jadavpur, Kolkata - WBPCB",
      "Pol_Date": "2024-09-23 21:00:00",
      "AQI": 85,
      "AQI_Quality": "Satisfactory",
      "Longitude": 88.3692,
      "Latitude": 22.4993
    },
    {
      "id": null,
      "State": "West_Bengal",
      "City": "Kolkata",
      "Station": "Jadavpur, Kolkata - WBPCB",
      "Pol_Date": "2024-09-23 21:00:00",
      "AQI": 85,
      "AQI_Quality": "Satisfactory",
      "Longitude": 88.3692,
      "Latitude": 22.4993
    },
    {
      "id": null,
      "State": "Odisha",
      "City": "Keonjhar",
      "Station": "Jagamohanpur, Keonjhar - OSPCB",
      "Pol_Date": "2024-09-23 14:00:00",
      "AQI": 63,
      "AQI_Quality": "Satisfactory",
      "Longitude": 85.5994,
      "Latitude": 21.6439
    },
    {
      "id": null,
      "State": "Odisha",
      "City": "Keonjhar",
      "Station": "Jagamohanpur, Keonjhar - OSPCB",
      "Pol_Date": "2024-09-23 14:00:00",
      "AQI": 63,
      "AQI_Quality": "Satisfactory",
      "Longitude": 85.5994,
      "Latitude": 21.6439
    },
    {
      "id": null,
      "State": "Delhi",
      "City": "Delhi",
      "Station": "Jahangirpuri, Delhi - DPCC",
      "Pol_Date": "2024-09-23 21:00:00",
      "AQI": 220,
      "AQI_Quality": "Poor",
      "Longitude": 77.1706,
      "Latitude": 28.7328
    },
    {
      "id": null,
      "State": "Delhi",
      "City": "Delhi",
      "Station": "Jahangirpuri, Delhi - DPCC",
      "Pol_Date": "2024-09-23 21:00:00",
      "AQI": 220,
      "AQI_Quality": "Poor",
      "Longitude": 77.1706,
      "Latitude": 28.7328
    },
    {
      "id": null,
      "State": "Uttar_Pradesh",
      "City": "Meerut",
      "Station": "Jai Bhim Nagar, Meerut - UPPCB",
      "Pol_Date": "2024-09-23 21:00:00",
      "AQI": 143,
      "AQI_Quality": "Moderate",
      "Longitude": 77.7623,
      "Latitude": 28.9536
    },
    {
      "id": null,
      "State": "Uttar_Pradesh",
      "City": "Meerut",
      "Station": "Jai Bhim Nagar, Meerut - UPPCB",
      "Pol_Date": "2024-09-23 21:00:00",
      "AQI": 143,
      "AQI_Quality": "Moderate",
      "Longitude": 77.7623,
      "Latitude": 28.9536
    },
    {
      "id": null,
      "State": "Puducherry",
      "City": "Puducherry",
      "Station": "Jawahar Nagar, Puducherry - PPCC",
      "Pol_Date": "2024-09-23 21:00:00",
      "AQI": 58,
      "AQI_Quality": "Satisfactory",
      "Longitude": 79.8027,
      "Latitude": 11.9309
    },
    {
      "id": null,
      "State": "Puducherry",
      "City": "Puducherry",
      "Station": "Jawahar Nagar, Puducherry - PPCC",
      "Pol_Date": "2024-09-23 21:00:00",
      "AQI": 58,
      "AQI_Quality": "Satisfactory",
      "Longitude": 79.8027,
      "Latitude": 11.9309
    },
    {
      "id": null,
      "State": "Delhi",
      "City": "Delhi",
      "Station": "Jawaharlal Nehru Stadium, Delhi - DPCC",
      "Pol_Date": "2024-09-23 20:00:00",
      "AQI": 120,
      "AQI_Quality": "Moderate",
      "Longitude": 77.2338,
      "Latitude": 28.5803
    },
    {
      "id": null,
      "State": "Delhi",
      "City": "Delhi",
      "Station": "Jawaharlal Nehru Stadium, Delhi - DPCC",
      "Pol_Date": "2024-09-23 20:00:00",
      "AQI": 120,
      "AQI_Quality": "Moderate",
      "Longitude": 77.2338,
      "Latitude": 28.5803
    },
    {
      "id": null,
      "State": "Karnataka",
      "City": "Bengaluru",
      "Station": "Jayanagar 5th Block, Bengaluru - KSPCB",
      "Pol_Date": "2024-09-23 21:00:00",
      "AQI": 29,
      "AQI_Quality": "Good",
      "Longitude": 77.5849,
      "Latitude": 12.921
    },
    {
      "id": null,
      "State": "Karnataka",
      "City": "Bengaluru",
      "Station": "Jayanagar 5th Block, Bengaluru - KSPCB",
      "Pol_Date": "2024-09-23 21:00:00",
      "AQI": 29,
      "AQI_Quality": "Good",
      "Longitude": 77.5849,
      "Latitude": 12.921
    },
    {
      "id": null,
      "State": "Rajasthan",
      "City": "Jodhpur",
      "Station": "Jhalamand, Jodhpur - RSPCB",
      "Pol_Date": "2024-09-23 21:00:00",
      "AQI": 87,
      "AQI_Quality": "Satisfactory",
      "Longitude": 73.0702,
      "Latitude": 26.2154
    },
    {
      "id": null,
      "State": "Rajasthan",
      "City": "Jodhpur",
      "Station": "Jhalamand, Jodhpur - RSPCB",
      "Pol_Date": "2024-09-23 21:00:00",
      "AQI": 87,
      "AQI_Quality": "Satisfactory",
      "Longitude": 73.0702,
      "Latitude": 26.2154
    },
    {
      "id": null,
      "State": "Uttar_Pradesh",
      "City": "Prayagraj",
      "Station": "Jhunsi, Prayagraj - UPPCB",
      "Pol_Date": "2024-09-23 11:00:00",
      "AQI": 54,
      "AQI_Quality": "Satisfactory",
      "Longitude": 81.9172,
      "Latitude": 25.4256
    },
    {
      "id": null,
      "State": "Karnataka",
      "City": "Bengaluru",
      "Station": "Jigani, Bengaluru - KSPCB",
      "Pol_Date": "2024-09-23 21:00:00",
      "AQI": 42,
      "AQI_Quality": "Good",
      "Longitude": 77.6299,
      "Latitude": 12.7816
    },
    {
      "id": null,
      "State": "Karnataka",
      "City": "Bengaluru",
      "Station": "Jigani, Bengaluru - KSPCB",
      "Pol_Date": "2024-09-23 21:00:00",
      "AQI": 42,
      "AQI_Quality": "Good",
      "Longitude": 77.6299,
      "Latitude": 12.7816
    },
    {
      "id": null,
      "State": "Uttar_Pradesh",
      "City": "Moradabad",
      "Station": "Jigar Colony, Moradabad - UPPCB",
      "Pol_Date": "2024-09-23 21:00:00",
      "AQI": 96,
      "AQI_Quality": "Satisfactory",
      "Longitude": 78.7726,
      "Latitude": 28.8567
    },
    {
      "id": null,
      "State": "Uttar_Pradesh",
      "City": "Moradabad",
      "Station": "Jigar Colony, Moradabad - UPPCB",
      "Pol_Date": "2024-09-23 21:00:00",
      "AQI": 96,
      "AQI_Quality": "Satisfactory",
      "Longitude": 78.7726,
      "Latitude": 28.8567
    },
    {
      "id": null,
      "State": "Karnataka",
      "City": "Mangalore",
      "Station": "Kadri, Mangalore - KSPCB",
      "Pol_Date": "2024-09-23 20:00:00",
      "AQI": 38,
      "AQI_Quality": "Good",
      "Longitude": 74.853,
      "Latitude": 12.8892
    },
    {
      "id": null,
      "State": "Karnataka",
      "City": "Mangalore",
      "Station": "Kadri, Mangalore - KSPCB",
      "Pol_Date": "2024-09-23 20:00:00",
      "AQI": 38,
      "AQI_Quality": "Good",
      "Longitude": 74.853,
      "Latitude": 12.8892
    },
    {
      "id": null,
      "State": "Karnataka",
      "City": "Dharwad",
      "Station": "Kalabhavan, Dharwad - KSPCB",
      "Pol_Date": "2024-09-23 21:00:00",
      "AQI": 52,
      "AQI_Quality": "Satisfactory",
      "Longitude": 75.0084,
      "Latitude": 15.4597
    },
    {
      "id": null,
      "State": "Karnataka",
      "City": "Dharwad",
      "Station": "Kalabhavan, Dharwad - KSPCB",
      "Pol_Date": "2024-09-23 21:00:00",
      "AQI": 52,
      "AQI_Quality": "Satisfactory",
      "Longitude": 75.0084,
      "Latitude": 15.4597
    },
    {
      "id": null,
      "State": "Punjab",
      "City": "Khanna",
      "Station": "Kalal Majra, Khanna - PPCB",
      "Pol_Date": "2024-09-23 21:00:00",
      "AQI": 92,
      "AQI_Quality": "Satisfactory",
      "Longitude": 76.2097,
      "Latitude": 30.7361
    },
    {
      "id": null,
      "State": "Punjab",
      "City": "Khanna",
      "Station": "Kalal Majra, Khanna - PPCB",
      "Pol_Date": "2024-09-23 21:00:00",
      "AQI": 92,
      "AQI_Quality": "Satisfactory",
      "Longitude": 76.2097,
      "Latitude": 30.7361
    },
    {
      "id": null,
      "State": "Odisha",
      "City": "Balasore",
      "Station": "Kalidaspur, Balasore - OSPCB",
      "Pol_Date": "2024-09-23 20:00:00",
      "AQI": 99,
      "AQI_Quality": "Satisfactory",
      "Longitude": 86.8909,
      "Latitude": 21.5116
    },
    {
      "id": null,
      "State": "Odisha",
      "City": "Balasore",
      "Station": "Kalidaspur, Balasore - OSPCB",
      "Pol_Date": "2024-09-23 20:00:00",
      "AQI": 99,
      "AQI_Quality": "Satisfactory",
      "Longitude": 86.8909,
      "Latitude": 21.5116
    },
    {
      "id": null,
      "State": "Uttar_Pradesh",
      "City": "Khurja",
      "Station": "Kalindi Kunj, Khurja - UPPCB",
      "Pol_Date": "2024-09-23 21:00:00",
      "AQI": 131,
      "AQI_Quality": "Moderate",
      "Longitude": 77.8683,
      "Latitude": 28.2349
    },
    {
      "id": null,
      "State": "Uttar_Pradesh",
      "City": "Khurja",
      "Station": "Kalindi Kunj, Khurja - UPPCB",
      "Pol_Date": "2024-09-23 21:00:00",
      "AQI": 131,
      "AQI_Quality": "Moderate",
      "Longitude": 77.8683,
      "Latitude": 28.2349
    },
    {
      "id": null,
      "State": "Karnataka",
      "City": "Chikkamagaluru",
      "Station": "Kalyana Nagara, Chikkamagaluru - KSPCB",
      "Pol_Date": "2024-09-23 21:00:00",
      "AQI": 34,
      "AQI_Quality": "Good",
      "Longitude": 75.7971,
      "Latitude": 13.328
    },
    {
      "id": null,
      "State": "Karnataka",
      "City": "Chikkamagaluru",
      "Station": "Kalyana Nagara, Chikkamagaluru - KSPCB",
      "Pol_Date": "2024-09-23 21:00:00",
      "AQI": 34,
      "AQI_Quality": "Good",
      "Longitude": 75.7971,
      "Latitude": 13.328
    },
    {
      "id": null,
      "State": "Maharashtra",
      "City": "Mahad",
      "Station": "Kamble Tarf Birwadi, Mahad - MPCB",
      "Pol_Date": "2024-09-23 21:00:00",
      "AQI": 63,
      "AQI_Quality": "Satisfactory",
      "Longitude": 73.4784,
      "Latitude": 18.1023
    },
    {
      "id": null,
      "State": "Maharashtra",
      "City": "Mahad",
      "Station": "Kamble Tarf Birwadi, Mahad - MPCB",
      "Pol_Date": "2024-09-23 21:00:00",
      "AQI": 63,
      "AQI_Quality": "Satisfactory",
      "Longitude": 73.4784,
      "Latitude": 18.1023
    },
    {
      "id": null,
      "State": "Maharashtra",
      "City": "Mumbai",
      "Station": "Kandivali East, Mumbai - MPCB",
      "Pol_Date": "2024-09-23 21:00:00",
      "AQI": 63,
      "AQI_Quality": "Satisfactory",
      "Longitude": 72.8682,
      "Latitude": 19.2058
    },
    {
      "id": null,
      "State": "Maharashtra",
      "City": "Mumbai",
      "Station": "Kandivali East, Mumbai - MPCB",
      "Pol_Date": "2024-09-23 21:00:00",
      "AQI": 63,
      "AQI_Quality": "Satisfactory",
      "Longitude": 72.8682,
      "Latitude": 19.2058
    },
    {
      "id": null,
      "State": "Maharashtra",
      "City": "Mumbai",
      "Station": "Kandivali West, Mumbai - BMC",
      "Pol_Date": "2024-09-23 21:00:00",
      "AQI": 90,
      "AQI_Quality": "Satisfactory",
      "Longitude": 72.8317,
      "Latitude": 19.2159
    },
    {
      "id": null,
      "State": "Maharashtra",
      "City": "Mumbai",
      "Station": "Kandivali West, Mumbai - BMC",
      "Pol_Date": "2024-09-23 21:00:00",
      "AQI": 90,
      "AQI_Quality": "Satisfactory",
      "Longitude": 72.8317,
      "Latitude": 19.2159
    },
    {
      "id": null,
      "State": "Andhra_Pradesh",
      "City": "Vijayawada",
      "Station": "Kanuru, Vijayawada - APPCB",
      "Pol_Date": "2024-09-22 23:00:00",
      "AQI": 48,
      "AQI_Quality": "Good",
      "Longitude": 80.6994,
      "Latitude": 16.4867
    },
    {
      "id": null,
      "State": "Bihar",
      "City": "Gaya",
      "Station": "Kareemganj, Gaya - BSPCB",
      "Pol_Date": "2024-09-23 20:00:00",
      "AQI": 92,
      "AQI_Quality": "Satisfactory",
      "Longitude": 84.9924,
      "Latitude": 24.7924
    },
    {
      "id": null,
      "State": "Bihar",
      "City": "Gaya",
      "Station": "Kareemganj, Gaya - BSPCB",
      "Pol_Date": "2024-09-23 20:00:00",
      "AQI": 92,
      "AQI_Quality": "Satisfactory",
      "Longitude": 84.9924,
      "Latitude": 24.7924
    },
    {
      "id": null,
      "State": "Kerala",
      "City": "Thiruvananthapuram",
      "Station": "Kariavattom, Thiruvananthapuram - Kerala PCB",
      "Pol_Date": "2024-09-23 20:00:00",
      "AQI": 59,
      "AQI_Quality": "Satisfactory",
      "Longitude": 76.8865,
      "Latitude": 8.5637
    },
    {
      "id": null,
      "State": "Kerala",
      "City": "Thiruvananthapuram",
      "Station": "Kariavattom, Thiruvananthapuram - Kerala PCB",
      "Pol_Date": "2024-09-23 20:00:00",
      "AQI": 59,
      "AQI_Quality": "Satisfactory",
      "Longitude": 76.8865,
      "Latitude": 8.5637
    },
    {
      "id": null,
      "State": "Rajasthan",
      "City": "Nagaur",
      "Station": "Karni Colony, Nagaur - RSPCB",
      "Pol_Date": "2024-09-23 21:00:00",
      "AQI": 50,
      "AQI_Quality": "Good",
      "Longitude": 73.7344,
      "Latitude": 27.2135
    },
    {
      "id": null,
      "State": "Rajasthan",
      "City": "Nagaur",
      "Station": "Karni Colony, Nagaur - RSPCB",
      "Pol_Date": "2024-09-23 21:00:00",
      "AQI": 50,
      "AQI_Quality": "Good",
      "Longitude": 73.7344,
      "Latitude": 27.2135
    },
    {
      "id": null,
      "State": "Maharashtra",
      "City": "Pune",
      "Station": "Karve Road, Pune - MPCB",
      "Pol_Date": "2024-09-23 21:00:00",
      "AQI": 51,
      "AQI_Quality": "Satisfactory",
      "Longitude": 73.8166,
      "Latitude": 18.5012
    },
    {
      "id": null,
      "State": "Maharashtra",
      "City": "Pune",
      "Station": "Karve Road, Pune - MPCB",
      "Pol_Date": "2024-09-23 21:00:00",
      "AQI": 51,
      "AQI_Quality": "Satisfactory",
      "Longitude": 73.8166,
      "Latitude": 18.5012
    },
    {
      "id": null,
      "State": "Maharashtra",
      "City": "Thane",
      "Station": "Kasarvadavali, Thane - MPCB",
      "Pol_Date": "2024-09-23 21:00:00",
      "AQI": 77,
      "AQI_Quality": "Satisfactory",
      "Longitude": 72.9718,
      "Latitude": 19.2678
    },
    {
      "id": null,
      "State": "Maharashtra",
      "City": "Thane",
      "Station": "Kasarvadavali, Thane - MPCB",
      "Pol_Date": "2024-09-23 21:00:00",
      "AQI": 77,
      "AQI_Quality": "Satisfactory",
      "Longitude": 72.9718,
      "Latitude": 19.2678
    },
    {
      "id": null,
      "State": "Uttar_Pradesh",
      "City": "Moradabad",
      "Station": "Kashiram Nagar, Moradabad - UPPCB",
      "Pol_Date": "2024-09-23 21:00:00",
      "AQI": 90,
      "AQI_Quality": "Satisfactory",
      "Longitude": 78.7424,
      "Latitude": 28.8494
    },